Technician_ID,Task_Session,Event_Time_s,Helmet_Yaw,Helmet_Pitch,Helmet_Roll,Glove_X,Glove_Y,Glove_Z,Eyetrack_H,Eyetrack_V,Fixation_Duration_s,Target_Component,Component_Count,Coworker_Visible,Workshop_Lighting,Scene_Complexity_Pct,Spoken_Command,Speech_dB,Articulation_Rate,Voice_Affect,Grasp_Type,Engagement_State,Cognitive_Load,Operator_Affect,Locomotion_cms,Action_Freq,Current_Step,Previous_Step,Task_Phase,Task_Difficulty,Gaze_Stability,Workload_Index,Sensor_Lag_ms,Ambient_Noise_dB,Workflow_Type
1006,2,34.14,-144.11,-37.24,164.9,-0.927,1.189,0.715,0.2813,0.637,0.706,Terminal_D,11,4.0,Ambient,47.2,None,77.89,124.6,Tense,Indicate,Moderate,0.6476,Alert,37.24,25,112,134,Inspection,1,0.249,0.5155,2.98,35.8,Branched
1006,4,40.45,-33.35,-75.03,157.96,0.12,0.555,0.429,0.8513,0.4788,0.521,None,10,,Fluorescent,33.0,None,37.42,155.3,Engaged,None,Moderate,0.4335,Cautious,91.26,17,140,176,Repair,2,0.4214,0.4219,39.24,37.8,Dynamic
1006,5,40.77,-131.28,51.47,17.06,-0.424,0.715,1.4,0.0802,0.6238,0.842,Panel_B,1,3.0,Ambient,29.9,Halt,90.78,165.8,Engaged,Tap,Passive,0.0985,Satisfied,90.28,27,198,146,Repair,2,0.1706,0.387,8.5,42.3,Branched
1006,5,64.64,-83.62,19.22,-132.02,1.108,0.485,1.4,0.1323,0.3441,0.323,Terminal_D,6,0.0,Fluorescent,17.5,Mark,48.55,242.6,Tense,Indicate,Active,0.3273,Composed,0.0,10,136,176,Diagnosis,3,0.6677,0.2976,1.0,50.7,Dynamic
1006,5,72.86,12.64,-85.7,177.15,-0.78,0.44,-0.674,0.5166,0.2943,0.188,Terminal_D,1,2.0,Dim,43.6,Halt,93.12,240.6,Engaged,Grip,Active,0.6155,Alert,71.08,6,146,168,Inspection,1,0.866,0.2408,7.14,32.7,Sequential
1006,6,53.88,164.47,39.33,14.76,1.202,0.816,0.565,0.8333,0.7494,0.99,Panel_A,2,3.0,Ambient,32.7,None,43.05,222.5,Engaged,Grip,Moderate,0.5068,Satisfied,58.8,22,152,176,Repair,5,0.0481,0.4591,9.94,39.5,Dynamic
1006,6,68.0,67.28,54.65,-118.29,-0.038,0.282,0.602,0.3301,0.0,0.19,Valve_C,14,4.0,Dim,55.9,Mark,86.12,160.5,Tense,Indicate,Passive,0.2535,Cautious,109.38,15,188,196,Diagnosis,5,0.7725,0.6219,4.3,46.7,Branched
1007,3,73.79,-153.61,56.1,-18.0,0.627,1.419,0.853,0.2326,0.5099,0.971,Panel_A,1,5.0,Ambient,91.7,Assist,68.14,154.9,Engaged,Grip,Active,0.2335,Satisfied,101.55,0,138,118,Diagnosis,3,0.0363,0.4223,13.63,38.8,Branched
1007,4,17.0,-85.82,-49.04,-149.09,-0.502,0.801,0.537,0.6325,0.7683,0.772,Panel_B,15,0.0,Ambient,68.9,,78.27,228.7,Tense,Tap,Passive,0.2147,Cautious,69.76,24,140,168,Briefing,5,0.2341,0.7491,9.5,42.5,Branched
1008,1,33.81,-170.84,-16.29,46.2,-0.882,0.472,1.031,0.5447,0.3516,0.233,Terminal_D,2,2.0,Dim,43.8,None,59.04,134.4,Calm,,Passive,0.8742,Composed,42.58,17,108,146,Inspection,5,,0.4588,28.45,48.9,Sequential
1008,2,16.13,-13.99,-53.7,-89.47,0.878,1.351,0.858,0.4066,0.4976,0.244,,2,1.0,Dim,99.4,,94.91,179.6,Tense,None,Moderate,0.9853,Satisfied,28.72,12,172,124,Briefing,1,0.7285,0.4944,1.68,37.1,Branched
1008,3,50.49,124.78,49.89,167.92,0.538,1.538,0.9,0.3866,0.6464,0.317,Valve_C,4,1.0,Ambient,96.8,Mark,59.67,186.4,Engaged,Grip,Passive,0.4287,Satisfied,22.89,24,168,128,Diagnosis,1,0.6214,0.6018,1.0,33.2,Sequential
1008,3,97.79,-115.24,18.65,-88.62,-0.688,1.622,0.314,0.6798,0.2374,0.649,Panel_A,14,3.0,Fluorescent,7.4,Mark,69.84,225.5,Frustrated,Grip,Moderate,0.9141,Satisfied,23.11,6,150,102,Repair,1,0.2947,0.2619,15.84,54.5,Branched
1008,5,14.39,106.96,69.79,-48.96,0.08,0.667,1.367,0.3783,0.6902,0.058,Terminal_D,20,1.0,Ambient,29.5,Proceed,43.58,233.8,Engaged,Grip,Moderate,0.2707,Satisfied,27.07,22,106,198,Briefing,5,0.9139,0.6524,9.35,35.1,Sequential
1008,5,30.35,-34.59,70.92,58.48,-0.326,1.202,0.649,0.4971,0.6567,0.955,Valve_C,13,2.0,Fluorescent,20.3,Mark,45.38,138.0,Tense,None,Passive,0.1075,Satisfied,92.46,17,198,112,Inspection,2,0.0216,0.4116,4.08,45.1,Sequential
1008,5,66.32,-155.91,-6.3,-71.89,0.129,0.897,0.722,0.577,0.2635,0.257,None,14,3.0,Fluorescent,61.6,Mark,47.68,172.3,Tense,,Passive,0.398,Composed,63.89,29,150,140,Repair,2,0.7008,0.6613,15.24,35.0,Branched
1008,6,79.13,70.38,-4.55,62.59,-0.812,1.411,1.4,0.8552,0.2296,0.239,None,3,3.0,Fluorescent,0.0,Proceed,66.43,210.4,Engaged,Grip,Moderate,0.2523,Cautious,22.07,9,164,196,Briefing,3,0.7864,0.1944,1.0,47.1,Branched
1008,6,82.34,46.93,82.5,165.41,0.214,0.671,-0.214,0.3591,0.4775,0.135,Panel_B,6,4.0,Dim,80.6,Mark,38.98,239.1,Frustrated,Indicate,Active,0.4142,Cautious,85.27,17,176,182,Diagnosis,1,,0.5131,18.74,30.4,Sequential
1008,7,62.02,-127.89,71.22,171.74,-1.006,1.468,1.274,0.4527,0.2057,0.546,Panel_A,13,5.0,Fluorescent,1.6,Halt,51.15,182.7,Calm,Tap,Moderate,0.8786,Satisfied,86.31,23,162,152,Diagnosis,5,0.448,0.483,8.6,53.1,Sequential
1008,7,66.7,36.15,57.7,-94.24,0.695,1.784,-0.271,0.7518,0.9139,0.92,Panel_B,13,4.0,Dim,57.1,None,65.63,168.0,Calm,Grip,Active,0.3705,Composed,43.89,24,124,152,Briefing,3,,0.6251,2.67,51.3,Sequential
1015,1,54.34,122.89,-90.0,139.68,0.828,1.116,1.4,0.6737,0.7767,0.764,Terminal_D,11,1.0,Ambient,1.7,Mark,51.35,188.8,Frustrated,Grip,Moderate,0.5656,Cautious,71.05,8,196,164,Repair,1,0.2573,0.2234,1.0,34.8,Branched
1015,1,81.71,42.13,42.94,22.55,-1.0,1.543,0.178,0.46,1.0,0.434,Panel_B,15,1.0,Fluorescent,2.6,,69.98,205.1,Engaged,Tap,Moderate,0.767,Composed,92.46,25,156,150,Repair,5,0.5936,0.5249,9.36,46.0,Sequential
1015,3,83.96,131.05,61.0,-130.35,-0.338,0.982,-0.453,0.5015,0.1871,0.719,None,10,1.0,Ambient,70.0,Proceed,86.53,236.0,Calm,None,Moderate,0.6692,Satisfied,44.11,16,154,176,Briefing,1,0.2413,0.5136,70.26,47.3,Branched
1015,4,15.71,123.63,-64.67,43.81,0.715,0.582,-0.048,0.3857,0.29,0.505,Panel_B,11,4.0,Dim,19.9,Mark,96.13,217.9,Calm,Tap,Passive,0.4981,Alert,88.83,5,104,194,Briefing,1,,0.2637,29.28,48.5,Sequential
1015,5,9.69,-4.52,-51.02,-106.99,-1.007,0.328,-0.025,0.987,0.5397,0.941,None,2,4.0,Dim,6.7,Proceed,45.48,197.5,Engaged,None,Passive,0.0459,Composed,83.38,27,166,158,Inspection,2,0.1265,0.3171,20.53,36.2,Dynamic
1015,5,77.93,-156.18,40.74,-3.28,0.235,1.091,-0.403,0.7605,0.3118,0.61,Valve_C,9,3.0,Ambient,83.4,Proceed,59.39,177.9,Engaged,Indicate,Moderate,0.0468,Cautious,18.54,5,184,190,Inspection,5,,0.5832,10.51,59.9,Branched
1015,6,72.64,-127.65,-82.41,40.47,0.149,1.084,1.334,0.0277,0.3468,,None,3,1.0,Ambient,4.4,Proceed,57.74,186.5,Engaged,,Passive,0.3033,Satisfied,86.78,28,186,134,Inspection,4,0.4478,0.3882,1.0,42.4,Sequential
1015,7,22.5,51.82,-54.71,78.69,1.092,1.062,1.4,0.8123,0.186,0.179,Terminal_D,17,1.0,Dim,8.0,Mark,85.9,177.1,Frustrated,Grip,Passive,0.5292,Alert,0.0,4,154,170,Repair,4,0.7362,0.3724,27.12,43.2,Sequential
1015,7,28.97,-168.25,60.0,-88.27,-0.022,0.282,-0.586,0.952,0.2156,0.33,Terminal_D,5,2.0,Fluorescent,44.9,None,82.97,218.5,Engaged,,Active,0.3216,Cautious,6.69,26,124,138,Inspection,1,0.7218,0.4471,4.26,28.4,Dynamic
1015,7,67.19,-31.78,65.37,150.81,-1.172,1.398,-0.256,0.8599,0.7411,0.161,Terminal_D,18,1.0,Ambient,24.0,Assist,77.46,126.2,Tense,Grip,Moderate,0.4437,Satisfied,77.57,18,134,160,Briefing,3,0.8619,0.5192,1.78,27.6,Sequential
1015,7,69.23,140.59,10.96,10.66,1.146,1.442,-0.699,0.1039,0.1196,0.692,Valve_C,12,4.0,Fluorescent,51.0,Mark,58.63,205.7,Engaged,Grip,Active,0.8522,Cautious,55.98,28,194,104,Inspection,3,0.3145,0.6236,54.25,46.6,Branched
1018,3,41.78,-69.64,-25.46,-17.28,-0.343,1.519,0.393,0.4692,0.6608,0.839,Valve_C,6,5.0,Fluorescent,19.0,None,63.4,171.7,Tense,Tap,Moderate,0.8543,Composed,68.93,17,128,168,Repair,4,0.1249,0.3875,1.0,46.6,Branched
1018,4,69.96,16.7,77.16,95.23,-0.305,0.289,1.4,0.603,0.1576,0.593,Panel_A,11,1.0,Dim,64.3,Proceed,94.09,242.8,Engaged,Indicate,Active,0.6812,Satisfied,55.93,22,194,132,Briefing,4,0.3805,0.6419,10.74,54.9,Branched
1018,4,80.33,177.65,66.1,99.23,-0.516,0.291,0.248,0.9685,0.1858,0.564,Valve_C,4,5.0,Dim,78.8,Mark,64.08,205.8,Engaged,None,Moderate,0.2363,Composed,84.12,23,116,188,Repair,1,0.4336,0.5309,16.18,25.0,Sequential
1018,5,57.5,-29.61,-17.27,-20.6,-0.608,0.83,0.641,0.7498,0.1549,0.977,Valve_C,3,4.0,Ambient,58.0,Halt,98.54,211.2,Frustrated,Indicate,Passive,0.6775,Alert,57.0,24,108,124,Repair,3,0.0516,0.5146,21.06,41.5,Branched
1018,6,26.52,-92.96,-40.51,-74.47,-0.631,0.879,0.379,0.7448,0.2618,0.409,Panel_A,11,4.0,Ambient,12.5,None,73.3,139.4,Engaged,Grip,Active,0.6361,Cautious,58.26,22,134,188,Repair,1,0.6001,0.3706,17.69,33.9,Sequential
1018,7,20.05,-36.63,61.84,13.94,0.859,0.782,0.094,0.9411,0.1005,0.472,Panel_B,3,4.0,Fluorescent,82.2,Assist,80.16,237.4,Calm,Grip,Moderate,0.093,Cautious,75.22,3,148,138,Repair,4,0.5037,0.4652,4.74,53.7,Branched
1018,7,30.11,-80.09,61.73,-11.54,-0.694,0.439,1.4,0.0196,0.4945,0.165,None,15,5.0,Ambient,7.6,Assist,45.54,129.9,Engaged,Tap,Moderate,0.2239,Composed,36.81,21,134,114,Inspection,5,0.806,0.5111,1.03,47.7,Sequential
1024,1,17.55,111.01,42.45,-49.3,-0.93,1.263,0.311,0.7432,0.3515,0.877,Terminal_D,15,3.0,Fluorescent,52.6,Mark,46.78,213.3,Tense,Indicate,Moderate,0.1616,Alert,92.42,15,118,128,Inspection,2,0.1032,0.5317,12.05,44.5,Dynamic
1024,4,46.02,-111.66,49.42,161.06,0.425,1.307,1.345,0.7306,0.7351,0.287,None,8,4.0,Dim,55.7,Mark,78.06,244.7,Calm,None,Passive,0.3988,Composed,99.76,9,124,108,Repair,5,0.7452,0.5062,19.63,42.6,Dynamic
1024,5,32.22,32.77,26.22,-86.64,-0.237,0.683,0.77,0.9331,0.3857,0.822,Terminal_D,2,5.0,Ambient,99.2,Mark,87.07,204.4,Engaged,Tap,Active,0.9082,Alert,49.23,11,106,138,Repair,4,0.2147,0.5759,67.36,40.1,Sequential
1024,6,89.78,-98.49,11.96,-107.01,0.282,0.873,0.791,0.9379,0.3197,0.444,Terminal_D,14,2.0,Fluorescent,76.5,Mark,102.63,225.4,Tense,Indicate,Moderate,0.659,Cautious,64.67,26,108,192,Inspection,2,0.5287,0.69,5.6,44.9,Sequential
1024,7,21.24,-100.62,74.89,-171.1,-0.728,1.555,-0.696,0.6735,0.0269,0.102,Valve_C,6,3.0,Fluorescent,35.9,Mark,75.79,131.2,Frustrated,Grip,Passive,0.0286,Alert,48.12,11,134,130,Inspection,3,0.8356,0.3698,4.93,44.1,Dynamic
1024,7,34.17,28.36,-6.25,129.95,-0.655,1.015,-0.267,0.3323,0.021,0.667,Valve_C,2,4.0,Dim,30.9,None,59.93,199.8,Calm,None,Moderate,0.2738,Cautious,30.78,21,104,178,Diagnosis,3,0.3638,0.3849,1.58,41.5,Dynamic
1024,7,63.46,-166.65,-87.84,-172.76,0.932,1.712,1.4,1.0,0.9174,0.719,Terminal_D,2,2.0,Ambient,53.3,Halt,97.38,129.1,Tense,Indicate,Passive,0.8785,Cautious,110.92,3,142,124,Inspection,4,0.2841,0.3527,8.33,38.4,Branched
1024,7,64.74,-116.02,59.17,70.24,1.056,0.967,1.355,0.3151,0.8254,0.457,Panel_B,12,3.0,Ambient,49.6,Halt,44.62,243.8,Tense,None,Active,0.0066,Satisfied,8.56,17,140,172,Inspection,1,0.5691,0.4728,4.12,26.2,Dynamic
1026,1,60.67,-73.98,-66.45,-7.91,-0.587,1.244,0.715,0.3497,0.1807,0.369,Valve_C,5,2.0,Dim,64.9,Mark,90.73,234.9,Calm,Indicate,Moderate,0.2939,Satisfied,106.21,24,122,180,Diagnosis,1,0.6005,0.5015,6.47,35.6,Sequential
1026,2,50.05,-140.13,-28.82,91.54,0.604,1.649,-0.284,0.4274,0.2313,0.199,Terminal_D,8,3.0,Fluorescent,74.1,Assist,88.11,133.9,Engaged,None,Moderate,0.2637,Composed,110.58,10,176,154,Inspection,2,0.7814,0.4884,5.77,54.9,Branched
1026,2,65.06,-129.71,48.31,4.82,0.279,0.475,0.9,0.3696,0.9075,0.59,Terminal_D,2,3.0,Dim,46.9,Proceed,39.51,148.1,Engaged,Grip,Passive,0.0323,Satisfied,100.3,31,160,102,Briefing,5,0.4023,0.5791,38.39,50.4,Sequential
1026,4,71.6,-58.35,-75.41,18.85,-0.091,1.655,0.771,0.6199,0.2253,0.754,None,4,0.0,Fluorescent,85.5,Proceed,41.82,234.8,Calm,Tap,Active,0.7795,Composed,36.68,5,196,106,Diagnosis,2,0.2706,0.4438,2.4,55.7,Sequential
1026,4,89.17,26.02,-89.89,-46.51,0.898,0.36,-0.693,0.4393,0.8021,0.686,Panel_B,13,0.0,Fluorescent,60.7,Assist,65.65,183.2,Calm,Grip,Active,0.2685,Composed,43.22,0,182,158,Diagnosis,2,0.3296,0.4202,5.4,42.3,Sequential
1026,5,36.47,61.02,-65.7,47.43,0.03,1.222,0.846,0.6246,0.1741,0.505,Panel_B,15,1.0,Dim,73.7,Assist,81.55,244.0,Tense,Indicate,Active,0.3847,Composed,26.87,25,108,198,Diagnosis,2,0.5251,0.6837,2.85,38.6,Sequential
1031,1,1.03,95.03,3.73,-101.8,0.741,0.979,0.788,0.3789,0.538,0.183,Valve_C,14,1.0,Dim,52.2,Mark,59.93,223.8,Frustrated,,Passive,0.8621,Composed,56.14,25,190,168,Diagnosis,1,0.7622,0.5671,35.92,49.8,Branched
1031,2,45.3,-47.94,-14.89,-41.71,-0.902,0.64,0.237,0.6751,0.6506,0.821,None,14,4.0,Ambient,17.9,Mark,85.21,222.9,Calm,Indicate,Moderate,0.8085,Composed,4.51,17,142,154,Inspection,1,0.1034,0.3846,27.12,30.7,Dynamic
1031,2,73.92,118.45,-30.74,-50.14,0.586,1.625,0.471,0.0366,0.4539,0.901,Panel_B,16,5.0,Dim,78.5,None,70.57,239.7,Frustrated,Tap,Moderate,0.0179,Composed,31.26,22,184,182,Briefing,2,0.1259,0.6884,18.95,40.1,Dynamic
1031,2,78.7,-118.06,4.35,122.37,-0.602,1.199,1.4,0.6794,0.9368,0.667,Valve_C,13,2.0,Fluorescent,54.7,Assist,93.89,183.5,Tense,Indicate,Moderate,0.9692,Alert,24.1,19,172,162,Repair,4,0.2942,0.6076,29.9,38.6,Dynamic
1031,2,94.58,-10.86,41.88,168.13,0.492,0.331,1.386,0.0435,0.1365,0.622,Terminal_D,13,0.0,Ambient,14.9,Assist,103.88,225.1,Tense,Tap,Moderate,0.2802,Satisfied,68.51,5,118,184,Repair,1,0.3781,0.2689,17.42,33.9,Dynamic
1031,3,29.85,74.2,-82.07,19.51,-0.875,0.454,1.054,0.7666,0.1886,0.172,Terminal_D,13,1.0,Fluorescent,70.1,Proceed,88.92,220.4,Calm,Grip,Moderate,0.8676,Composed,93.34,27,120,134,Briefing,4,0.785,0.724,6.13,39.9,Branched
1031,3,38.67,-7.47,-27.84,122.97,0.383,1.07,-0.51,0.5552,0.0109,0.184,Terminal_D,13,5.0,Ambient,91.5,None,55.02,187.8,Frustrated,Grip,Active,0.4436,Composed,96.05,2,196,194,Briefing,2,0.8143,0.5436,14.66,44.2,Sequential
1031,4,1.24,121.92,2.32,-33.43,-0.058,1.537,1.065,1.0,0.5247,0.05,Panel_A,7,0.0,Fluorescent,74.8,Mark,101.32,194.8,Frustrated,None,Passive,0.5948,Alert,0.2,20,132,164,Repair,1,0.9769,0.5276,6.92,41.1,Branched
1031,4,73.51,106.27,-40.79,-150.2,-0.878,1.705,1.4,0.0527,0.1646,0.856,Valve_C,6,4.0,Fluorescent,84.0,Assist,71.5,246.8,Frustrated,,Active,1.0,Composed,42.32,23,192,134,Briefing,3,0.0993,0.6319,9.14,36.8,Dynamic
1031,4,91.27,-101.8,-8.13,132.88,1.25,0.663,1.4,0.3976,0.3399,0.973,None,3,4.0,Fluorescent,55.2,Mark,88.08,153.0,Engaged,Indicate,Moderate,0.5224,Cautious,12.48,27,128,160,Inspection,5,0.0371,0.5882,23.77,48.6,Branched
1031,5,92.87,91.31,-85.25,110.12,-0.501,1.407,0.016,0.7882,0.2627,0.975,Panel_B,7,3.0,Ambient,82.0,Halt,53.01,216.3,Frustrated,Tap,Passive,0.127,Alert,61.66,20,128,172,Briefing,2,0.0,0.5828,2.08,42.2,Dynamic
1031,6,1.61,4.69,85.69,-98.93,-0.272,1.234,1.4,0.337,0.7378,0.466,None,5,0.0,Dim,32.1,Mark,101.14,223.1,Engaged,Tap,Passive,0.3618,Composed,37.15,24,150,110,Repair,4,0.508,0.4767,29.97,50.0,Branched
1031,6,54.43,77.18,33.75,-61.58,-1.238,0.317,-0.109,0.6635,0.7304,0.367,Terminal_D,1,3.0,Fluorescent,38.6,Mark,71.84,122.8,Engaged,Tap,Moderate,0.1711,Composed,29.0,9,180,156,Diagnosis,3,0.6186,0.3068,15.0,54.6,Sequential
1031,7,18.34,-164.17,-33.88,73.51,1.083,0.696,0.794,0.4882,0.9228,0.945,Panel_A,11,5.0,Fluorescent,83.4,Assist,55.96,136.2,Engaged,Indicate,Passive,0.6952,Alert,109.24,8,176,154,Inspection,1,0.1268,0.5094,1.64,39.6,Dynamic
1031,7,34.04,-117.01,37.63,-83.63,0.478,1.428,0.024,0.0,0.7655,0.378,None,8,2.0,Fluorescent,97.5,Proceed,86.64,203.3,Engaged,,Moderate,0.683,Satisfied,88.17,11,190,160,Diagnosis,2,0.6436,0.5781,24.13,26.0,Dynamic
1031,7,38.24,-172.59,56.55,-152.83,0.114,0.726,-0.216,0.0277,0.9177,0.116,Panel_B,4,5.0,Fluorescent,73.2,Mark,82.27,213.9,Engaged,Grip,Active,0.544,Satisfied,83.4,30,142,170,Inspection,4,0.8385,0.656,2.12,41.0,Dynamic
1031,7,68.54,115.61,48.11,-146.52,-0.644,1.053,-0.214,0.5043,0.0354,0.54,Panel_A,14,3.0,Fluorescent,53.0,Halt,63.82,187.5,Frustrated,Tap,Passive,0.1227,Composed,9.15,16,188,122,Diagnosis,4,0.4667,0.5896,2.75,26.7,Dynamic
1035,2,54.51,38.77,-35.56,168.49,0.837,1.189,0.741,0.3649,0.568,0.766,Terminal_D,6,4.0,Dim,83.0,Proceed,95.38,113.8,Calm,Tap,Moderate,0.4018,Cautious,5.54,30,182,110,Inspection,2,0.263,0.6531,6.97,37.1,Branched
1035,3,17.47,-22.81,3.27,-162.51,-0.237,1.658,1.344,0.86,0.2166,0.537,,16,2.0,Ambient,63.6,None,72.94,166.8,Tense,Indicate,Passive,0.6086,Satisfied,50.19,18,170,112,Diagnosis,4,0.4022,0.665,1.55,52.5,Dynamic
1035,3,67.76,122.66,-65.47,-140.33,-0.829,1.933,1.389,0.8443,0.6622,0.292,Panel_B,18,2.0,Ambient,56.1,Assist,101.92,189.0,Engaged,Grip,Active,0.6633,Cautious,60.7,19,124,192,Briefing,1,0.7322,0.5793,5.79,36.7,Sequential
1035,4,77.05,-167.19,-87.8,-95.2,-0.689,0.775,-0.083,0.6116,0.8752,0.212,Panel_A,17,4.0,Ambient,7.8,Assist,71.17,182.5,Tense,None,Passive,0.2854,Composed,35.41,11,162,126,Inspection,1,0.7031,0.3364,8.44,27.0,Sequential
1035,4,82.03,114.09,56.69,-90.58,1.153,0.905,-0.354,0.3104,0.2556,0.852,Panel_B,16,4.0,Ambient,60.7,Assist,42.75,213.3,Frustrated,None,Passive,0.0561,Composed,46.41,25,154,150,Inspection,1,0.1057,0.6196,7.31,44.4,Sequential
1035,5,6.84,-139.2,77.85,-38.56,0.059,1.051,1.268,0.187,0.0474,0.497,Valve_C,5,4.0,Fluorescent,39.7,Halt,101.66,194.2,Engaged,Grip,Active,0.4354,Satisfied,61.71,18,170,142,Briefing,3,,0.4264,33.24,54.1,Sequential
1035,5,57.61,41.45,-1.3,44.46,-0.499,1.435,0.432,0.878,0.393,0.452,Terminal_D,14,3.0,Ambient,85.5,Proceed,54.49,204.9,Engaged,Indicate,Passive,0.2878,Cautious,70.7,1,160,114,Repair,2,0.5688,0.5262,1.38,45.2,Dynamic
1035,6,32.55,138.15,12.38,-64.02,-0.114,0.942,1.4,0.594,0.0993,0.825,Valve_C,15,1.0,Fluorescent,11.8,Proceed,42.15,223.6,Engaged,Tap,Moderate,0.6338,Cautious,27.22,7,106,110,Diagnosis,5,0.1694,0.4164,2.61,30.1,Dynamic
1035,6,60.93,-56.63,-84.76,-10.8,0.52,1.045,0.845,0.5175,0.3525,0.419,None,13,1.0,Dim,95.3,Mark,88.31,205.3,Calm,None,Passive,0.1401,Composed,69.64,3,102,116,Diagnosis,5,,0.6547,12.83,30.5,Branched
1036,1,86.91,116.53,62.66,34.22,-0.16,1.495,1.4,0.0745,0.4417,,Valve_C,20,2.0,Fluorescent,98.8,Proceed,70.05,245.0,Engaged,None,Moderate,0.7562,Alert,71.16,11,122,168,Repair,2,0.5551,0.719,35.14,50.2,Dynamic
1036,1,96.19,-40.16,70.56,69.87,-0.424,0.801,1.4,0.9089,0.8745,0.298,Valve_C,9,4.0,Fluorescent,41.4,Assist,38.4,219.7,Engaged,None,Active,0.0549,Composed,62.32,3,180,156,Inspection,4,0.744,0.3906,12.64,35.4,Branched
1036,5,5.02,-122.52,-85.92,-84.48,1.172,0.959,-0.167,0.7947,0.6206,0.588,,8,,Ambient,77.3,Proceed,88.03,230.7,Tense,None,Active,0.28,Cautious,36.63,27,172,164,Briefing,5,0.4435,0.7224,1.23,43.5,Branched
1036,5,93.63,-111.48,-13.02,72.07,-0.843,1.581,-0.043,0.738,0.7665,0.086,Terminal_D,2,1.0,Dim,98.6,None,48.73,233.7,Frustrated,Indicate,Active,0.6338,Satisfied,50.83,11,108,138,Briefing,3,0.942,0.5438,6.91,43.7,Branched
1036,7,47.7,-4.5,83.9,-150.4,-1.144,0.702,0.573,0.3493,0.5423,0.58,Valve_C,5,1.0,Ambient,95.7,None,97.28,198.5,Frustrated,Tap,Passive,0.6869,Composed,111.22,21,112,110,Diagnosis,1,0.4593,0.5858,1.0,38.9,Sequential
1038,1,72.8,-8.38,-41.51,-109.6,0.163,1.681,0.021,0.0954,0.5249,0.669,Valve_C,16,1.0,Dim,18.2,Proceed,80.44,224.2,Frustrated,Indicate,Moderate,0.6042,Composed,23.77,24,126,122,Diagnosis,4,,0.553,4.91,50.2,Dynamic
1038,2,63.94,178.08,-21.43,66.52,0.136,1.603,0.219,0.9752,0.1772,0.209,Terminal_D,17,1.0,Fluorescent,39.1,Proceed,89.59,162.1,Frustrated,Grip,Passive,0.6845,Composed,64.73,29,116,196,Diagnosis,4,0.7122,0.6766,36.52,43.1,Branched
1038,2,91.55,22.48,-0.94,-78.31,-0.5,1.327,0.324,0.2875,0.0131,0.393,Panel_A,12,1.0,Fluorescent,65.3,Halt,44.71,138.7,Engaged,Grip,Passive,0.7609,Composed,90.34,20,144,148,Briefing,2,0.5826,0.5812,13.45,48.6,Branched
1038,3,36.89,-133.43,-17.36,26.21,-0.272,0.604,1.4,0.1174,0.308,0.31,Terminal_D,10,2.0,Dim,49.7,None,44.62,196.2,Tense,Grip,Active,0.6522,Satisfied,63.68,7,192,190,Briefing,5,0.7041,0.4923,59.46,34.7,Dynamic
1038,4,6.0,-35.21,-41.11,83.46,0.797,0.465,0.324,1.0,0.1991,0.066,Valve_C,2,,Fluorescent,1.4,Assist,60.23,187.0,Tense,,Passive,0.4711,Alert,25.96,25,168,168,Briefing,5,0.9613,0.3729,19.83,46.0,Branched
1038,5,66.2,40.76,-34.68,128.2,0.16,1.476,1.4,0.1003,0.1619,0.328,Valve_C,5,2.0,Dim,0.7,Halt,93.24,137.4,Calm,Tap,Active,0.974,Alert,35.17,16,148,152,Diagnosis,5,0.6093,0.3343,1.98,52.7,Sequential
1038,5,73.27,-173.3,73.03,66.61,0.02,1.439,1.309,0.1086,0.2193,0.307,None,15,3.0,Dim,21.3,Proceed,35.0,121.5,Engaged,Indicate,Passive,0.028,Alert,8.65,28,146,132,Inspection,2,0.6788,0.5238,6.08,44.2,Sequential
1038,6,58.78,123.05,-65.31,-70.93,-0.65,1.486,-0.244,0.9715,0.5312,0.311,,3,5.0,Ambient,56.0,,83.45,223.9,Calm,,Active,0.8946,Satisfied,35.8,11,104,192,Repair,3,0.6493,0.406,6.03,39.9,Dynamic
1038,7,3.54,-62.04,-1.4,-7.53,0.652,0.793,-0.632,0.7329,0.5945,0.604,Terminal_D,7,0.0,Dim,39.3,Proceed,39.38,247.3,Engaged,None,Passive,0.2534,Composed,104.08,13,190,186,Diagnosis,4,0.3464,0.4387,2.76,45.5,Sequential
1044,2,43.44,12.05,78.59,-160.65,-0.138,0.941,0.549,0.1189,0.4532,,Terminal_D,11,3.0,Dim,56.4,Assist,105.0,212.6,Tense,,Passive,0.7389,Cautious,22.69,29,112,102,Inspection,4,0.6363,0.669,9.22,50.1,Dynamic
1044,2,79.53,-132.37,12.32,139.23,0.718,1.758,-0.057,0.1194,0.3623,0.343,Valve_C,15,5.0,Ambient,10.5,Mark,44.53,198.1,Frustrated,,Active,0.5712,Alert,50.01,27,138,122,Repair,4,0.6945,0.5381,22.25,39.6,Branched
1044,3,17.78,-84.19,2.11,64.09,-1.062,0.696,-0.114,0.0743,0.4825,0.305,None,4,3.0,Dim,49.2,None,102.18,178.8,Calm,Indicate,Passive,0.9322,Alert,89.81,21,116,166,Diagnosis,3,0.6782,0.4717,20.58,39.7,Sequential
1044,3,70.81,-149.49,-48.42,66.18,-0.235,0.768,0.489,0.9837,0.3312,0.078,Panel_B,17,0.0,Fluorescent,37.0,,78.92,227.1,Tense,Tap,Passive,0.6281,Cautious,102.37,9,176,170,Diagnosis,1,0.9061,0.423,3.17,47.9,Branched
1044,3,82.22,108.89,-16.1,134.53,-0.159,0.974,-0.546,0.1574,0.6687,0.75,Terminal_D,9,4.0,Dim,80.9,Halt,61.37,218.8,Tense,Indicate,Active,0.1396,Composed,13.76,5,156,120,Briefing,4,,0.5445,17.4,65.4,Branched
1044,4,3.88,92.94,-74.93,-69.74,1.251,0.33,-0.179,0.1978,0.4178,0.315,Panel_B,17,1.0,Ambient,72.4,Proceed,40.97,195.6,Frustrated,None,Active,0.2031,Composed,97.06,24,154,178,Briefing,3,0.7406,0.7241,8.72,53.6,Sequential
1044,5,33.8,-65.31,-69.53,-70.41,0.598,1.437,0.843,0.586,0.7227,0.065,Panel_A,4,1.0,Ambient,88.8,Assist,82.88,144.2,Engaged,None,Passive,0.7929,Alert,40.29,0,116,148,Diagnosis,1,0.9614,0.3863,4.22,36.5,Dynamic
1044,5,92.37,163.53,-55.28,52.66,-0.705,1.73,-0.27,0.1416,0.5617,0.835,None,8,3.0,Ambient,81.9,Halt,91.52,200.6,Tense,Tap,Moderate,0.6883,Alert,55.25,1,162,186,Repair,2,0.0966,0.4454,23.78,32.8,Branched
1044,6,26.08,76.27,-84.23,128.03,-0.798,1.306,1.296,0.7723,0.1381,0.235,None,1,4.0,Fluorescent,75.9,Assist,41.65,231.1,Calm,Grip,Moderate,0.7644,Cautious,33.48,0,162,102,Diagnosis,3,0.7625,0.367,1.0,41.4,Dynamic
1044,6,32.15,8.65,-63.91,176.05,0.564,1.478,0.884,0.7333,0.2855,0.149,,11,2.0,Fluorescent,56.2,Assist,80.86,157.6,Engaged,Grip,Active,0.0756,Cautious,73.26,24,146,134,Inspection,3,0.8068,0.5992,5.52,32.6,Sequential
1049,1,4.96,-50.29,-72.99,109.88,-0.025,0.908,-0.32,0.2328,0.2467,0.339,None,10,3.0,Fluorescent,95.7,Proceed,55.26,124.3,Engaged,Tap,Moderate,0.5988,Alert,36.71,4,148,114,Inspection,4,0.6237,0.5998,4.27,43.4,Sequential
1049,1,65.98,-127.97,-21.75,78.5,-0.152,0.799,0.511,0.0537,0.3201,0.694,Terminal_D,8,5.0,Fluorescent,51.4,Mark,55.29,214.5,Frustrated,Indicate,Active,0.2701,Composed,57.18,19,174,126,Repair,2,0.3115,0.4792,15.17,39.9,Sequential
1049,4,91.91,69.93,10.72,-43.35,0.219,1.309,-0.55,0.8373,0.6683,0.611,None,17,2.0,Fluorescent,40.2,Halt,84.57,241.5,Calm,Indicate,Moderate,0.8312,Composed,13.22,7,132,194,Repair,1,0.3662,0.4186,10.53,38.0,Sequential
1049,6,83.13,-127.29,-44.42,-69.15,0.772,0.923,1.278,0.6425,0.3478,0.937,Terminal_D,10,2.0,Dim,10.7,Assist,85.55,135.1,Calm,Indicate,Moderate,0.9195,Cautious,6.34,8,158,182,Diagnosis,1,,0.2436,10.93,45.1,Dynamic
1049,7,7.17,-31.71,-10.02,158.04,1.05,1.423,-0.368,0.4464,0.1683,0.71,Terminal_D,14,2.0,Ambient,51.4,None,44.18,223.8,Tense,Grip,Active,0.646,Cautious,9.3,22,110,108,Repair,4,0.2638,0.6309,9.41,41.3,Branched
1049,7,64.44,-143.68,-77.08,62.0,0.556,0.551,1.4,0.1148,0.4487,,None,6,2.0,Fluorescent,51.7,,78.83,230.3,Engaged,None,Active,0.6255,Satisfied,6.94,1,116,102,Diagnosis,1,0.0582,0.2869,9.38,37.0,Branched
1050,2,16.8,-27.88,58.97,-7.36,-0.514,1.734,1.4,0.7306,0.601,0.163,Terminal_D,10,2.0,Fluorescent,81.6,Halt,65.31,228.1,Engaged,None,Active,0.47,Composed,65.52,27,150,134,Repair,1,0.8127,0.6402,10.53,42.4,Branched
1050,2,78.55,-137.58,-24.88,44.01,-0.795,1.362,-0.199,0.5527,0.256,0.514,Terminal_D,15,2.0,Ambient,15.8,Assist,97.27,180.0,Tense,Tap,Passive,0.1054,Composed,42.23,31,156,114,Inspection,5,0.4732,0.6179,6.21,53.4,Sequential
1050,4,84.26,62.9,24.52,-137.05,0.569,1.443,-0.276,0.8149,0.8639,0.371,,15,5.0,Dim,36.6,Proceed,101.46,171.6,Engaged,None,Passive,0.9321,Alert,44.01,10,188,158,Diagnosis,2,0.6054,0.4367,44.52,33.5,Dynamic
1050,4,87.4,4.07,31.8,28.63,0.564,1.327,0.362,0.4204,0.2309,0.305,Terminal_D,13,2.0,Dim,3.8,None,38.06,246.1,Calm,Grip,Active,0.6354,Alert,101.96,17,144,194,Briefing,4,0.6313,0.4138,1.5,43.3,Sequential
1050,6,22.98,83.48,-82.12,76.76,0.959,0.405,-0.261,0.0964,0.8246,0.792,Panel_B,16,5.0,Dim,52.2,None,98.83,200.9,Tense,Indicate,Moderate,0.9687,Composed,115.59,17,110,188,Briefing,4,0.1937,0.6173,2.69,26.5,Sequential
1050,7,24.2,160.53,-44.44,-79.95,0.898,1.845,0.406,0.3831,0.8383,0.552,Panel_A,15,4.0,Ambient,31.0,Mark,64.61,140.9,Engaged,Tap,Active,0.4101,Cautious,49.45,3,166,142,Inspection,5,0.4237,0.4524,1.0,31.1,Dynamic
1050,7,35.07,-144.37,88.77,-147.37,-1.024,1.672,0.436,0.7339,0.5674,0.591,Panel_B,5,2.0,Ambient,4.4,None,42.34,143.8,Tense,None,Passive,0.6117,Satisfied,16.04,27,110,108,Repair,4,0.3793,0.4032,70.03,49.3,Sequential
1050,7,43.91,152.69,-67.51,-167.12,-0.745,1.709,-0.165,0.25,0.1247,0.589,Terminal_D,1,3.0,Fluorescent,51.8,Proceed,46.26,137.9,Tense,Indicate,Passive,0.2432,Cautious,91.63,8,118,164,Repair,2,0.421,0.3152,3.59,41.2,Dynamic
1051,1,30.8,169.72,-15.03,35.65,0.402,1.091,0.298,0.8154,0.7044,0.251,Valve_C,7,1.0,Dim,62.4,Proceed,70.62,191.4,Tense,Grip,Moderate,0.3611,Cautious,11.14,20,124,132,Repair,1,0.8492,0.4842,10.82,41.2,Branched
1051,2,39.85,17.58,51.69,164.14,-0.385,0.926,0.175,0.2087,0.8525,0.264,Valve_C,4,1.0,Ambient,46.4,Mark,86.33,136.0,Calm,Indicate,Active,0.9478,Satisfied,45.44,14,126,192,Repair,4,0.8061,0.4372,9.91,47.3,Dynamic
1051,4,32.95,-111.15,-34.99,49.23,0.447,1.422,1.169,0.4749,0.2776,0.427,None,8,1.0,Dim,71.0,Halt,87.49,134.3,Tense,Tap,Moderate,0.1534,Composed,93.48,8,162,190,Repair,2,0.5262,0.4619,6.04,47.1,Branched
1051,4,40.64,-44.92,-74.86,124.83,0.71,0.332,1.166,0.9225,0.8745,0.704,Valve_C,9,4.0,Ambient,65.2,Halt,85.31,251.5,Calm,Tap,Moderate,0.5299,Cautious,15.9,29,128,106,Inspection,1,0.3225,0.587,25.31,50.2,Sequential
1051,5,36.37,68.01,-72.94,-51.47,-0.258,0.817,0.177,0.6991,0.7199,0.549,Terminal_D,7,,Ambient,26.7,Halt,35.0,219.3,Calm,Indicate,Active,0.0071,Alert,3.11,29,196,152,Repair,4,0.4564,0.5196,9.62,44.0,Sequential
1051,5,37.69,7.92,-10.35,88.06,-0.15,1.805,1.375,0.9255,0.4077,0.488,Panel_A,13,1.0,Ambient,74.8,Proceed,40.1,171.1,Tense,Tap,Moderate,0.7774,Alert,96.18,27,114,122,Inspection,1,0.5165,0.6505,16.22,47.0,Dynamic
1051,5,49.13,88.68,-14.71,-135.18,1.028,0.473,0.151,0.2828,0.3072,0.505,Panel_A,2,1.0,Fluorescent,9.6,Halt,87.02,128.0,Tense,None,Passive,0.0428,Cautious,38.49,6,160,116,Briefing,2,0.5316,0.1632,23.35,35.0,Branched
1051,5,74.19,-107.26,-42.83,-8.75,0.679,1.694,-0.564,0.3235,0.0628,0.251,Panel_B,18,5.0,Fluorescent,70.5,Proceed,67.33,208.7,Engaged,Grip,Active,0.0703,Composed,36.83,6,122,114,Repair,3,0.7235,0.5882,8.37,51.7,Dynamic
1051,7,42.28,-118.99,21.31,-41.48,-0.232,0.818,0.732,0.3835,0.3752,,None,13,2.0,Fluorescent,39.0,None,41.05,111.4,Calm,Grip,Moderate,0.9222,Composed,92.38,7,170,124,Briefing,4,0.5591,0.4589,50.79,46.8,Dynamic
1058,1,54.68,17.35,-22.5,42.1,-0.002,0.945,0.312,0.3735,0.6328,0.62,Panel_B,16,1.0,Fluorescent,92.0,Halt,82.65,139.6,Calm,None,Active,0.5189,Alert,66.05,2,192,108,Briefing,2,0.3117,0.5794,45.03,43.3,Dynamic
1058,4,88.28,-27.56,55.91,-114.03,-0.197,1.178,1.4,0.8063,0.6643,,None,15,2.0,Dim,31.9,None,44.92,180.5,Engaged,Grip,Active,0.7114,Composed,0.0,17,136,128,Briefing,2,0.8543,0.4749,7.08,55.8,Dynamic
1058,4,99.13,73.61,-37.23,-149.68,0.843,0.242,-0.414,0.0718,0.3708,0.739,None,11,3.0,Ambient,8.6,Assist,89.66,205.6,Calm,Indicate,Active,0.1374,Satisfied,60.79,2,160,170,Diagnosis,2,0.2817,0.2307,21.11,48.8,Sequential
1058,5,6.98,-173.43,-67.16,-40.97,0.347,1.759,-0.575,0.5762,0.1884,0.05,Panel_A,3,0.0,Fluorescent,4.3,Proceed,69.76,204.2,Calm,None,Moderate,0.8315,Cautious,41.26,2,162,136,Repair,1,0.9923,0.0948,2.18,50.7,Dynamic
1058,5,26.19,16.97,61.76,90.97,0.725,0.607,1.263,0.4313,0.801,0.386,Terminal_D,6,2.0,Dim,20.4,None,43.97,186.2,Engaged,Grip,Passive,0.6351,Composed,60.87,27,190,184,Inspection,1,0.7152,0.3805,5.38,46.6,Branched
1058,5,51.43,25.69,-3.65,2.5,0.958,1.088,0.97,0.596,0.2677,0.94,Panel_A,8,2.0,Dim,79.7,Halt,86.59,188.4,Tense,Grip,Moderate,0.7455,Alert,66.61,21,124,178,Inspection,1,0.1053,0.5639,16.19,45.4,Dynamic
1058,6,38.92,-163.95,-31.33,172.91,0.731,1.042,1.26,0.8768,0.8128,0.521,Panel_B,16,2.0,Fluorescent,57.7,Halt,104.91,232.6,Calm,Grip,Passive,0.5309,Alert,41.49,27,150,194,Repair,2,0.5051,0.6547,11.59,50.9,Sequential
1058,6,49.32,-29.87,25.12,1.21,0.637,1.656,1.4,0.3827,0.2112,0.156,Panel_B,17,5.0,Ambient,86.3,,103.01,189.0,Engaged,Indicate,Moderate,0.5108,Composed,101.72,8,134,186,Repair,2,0.7603,0.6177,1.43,46.2,Branched
1058,6,53.34,-76.87,-64.6,74.58,0.285,1.716,0.62,0.2893,0.2439,0.433,None,3,3.0,Ambient,48.0,None,78.19,139.7,Frustrated,Tap,Passive,0.2706,Satisfied,36.17,23,132,108,Inspection,5,0.6124,0.5318,12.89,39.4,Branched
1058,7,95.87,36.52,0.29,-64.35,0.039,0.292,0.214,0.701,0.3462,0.481,Valve_C,2,4.0,Ambient,18.9,Mark,75.88,225.1,Frustrated,None,Active,0.5349,Composed,28.84,21,190,126,Diagnosis,5,0.5092,0.4029,3.86,36.7,Sequential
1065,1,26.0,-176.56,-59.95,112.36,-0.422,0.9,0.848,0.5796,0.336,0.387,Panel_B,17,4.0,Ambient,79.5,Mark,78.95,195.3,Engaged,None,Active,0.191,Composed,43.18,3,188,116,Repair,5,0.6081,0.6449,1.0,44.4,Sequential
1065,1,48.91,71.96,32.22,83.93,0.913,1.086,0.506,0.2576,0.9308,,Valve_C,5,4.0,Ambient,68.2,None,81.01,208.4,Tense,Grip,Moderate,0.3052,Satisfied,21.55,10,110,164,Repair,2,0.6051,0.4336,17.03,38.7,Branched
1065,1,54.57,-62.93,-8.48,73.36,0.626,1.929,0.137,0.4553,0.6151,0.349,None,1,5.0,Ambient,77.0,Proceed,102.59,213.4,Engaged,None,Moderate,0.7382,Alert,36.41,22,190,168,Repair,5,0.6487,0.6027,3.1,53.3,Dynamic
1065,2,22.68,-56.7,72.02,-129.28,-0.161,0.711,0.442,1.0,0.3648,0.913,Terminal_D,10,3.0,Dim,63.6,Mark,103.66,183.7,Frustrated,Indicate,Active,0.9718,Cautious,15.83,28,148,142,Diagnosis,1,0.0637,0.585,32.62,37.6,Dynamic
1065,2,76.21,155.44,-54.23,-116.46,-0.533,0.804,0.442,0.6111,0.5653,0.547,,17,2.0,Ambient,18.7,Mark,48.11,161.9,Tense,Tap,Active,0.0871,Composed,0.0,0,154,140,Inspection,4,0.4237,0.3786,26.25,41.1,Sequential
1065,7,56.51,-61.56,9.42,-28.43,-0.682,0.849,0.7,0.8722,0.2159,0.51,Terminal_D,11,1.0,Ambient,83.5,Proceed,102.14,212.6,Tense,None,Moderate,0.0831,Satisfied,67.18,12,104,182,Repair,2,0.4249,0.571,1.0,37.4,Sequential
1065,7,59.71,164.86,2.89,-158.15,0.169,1.259,1.4,0.4804,0.8282,0.582,Terminal_D,17,1.0,Ambient,11.3,None,86.75,143.5,Frustrated,Indicate,Passive,0.3842,Alert,55.51,21,196,102,Briefing,2,0.4384,0.4568,28.59,56.9,Dynamic
1065,7,60.46,123.93,16.63,17.73,-0.371,0.486,-0.265,0.5533,0.5546,0.682,Panel_B,19,2.0,Fluorescent,40.3,Mark,86.53,204.7,Tense,Grip,Moderate,0.402,Composed,113.38,31,186,142,Briefing,5,0.3136,0.7491,11.37,35.6,Sequential
1073,2,39.86,-55.89,58.28,-24.83,-0.323,1.262,1.4,0.0798,0.284,0.705,Panel_B,9,3.0,Fluorescent,77.8,None,62.04,230.5,Engaged,Grip,Active,0.2911,Satisfied,0.0,12,154,136,Diagnosis,3,0.2399,0.5583,13.97,41.4,Branched
1073,4,51.71,-66.42,-60.42,-180.0,-1.236,0.936,1.4,0.7516,0.9044,0.975,Valve_C,13,0.0,Ambient,34.4,Assist,72.83,154.8,Calm,Tap,Moderate,0.6548,Alert,42.67,19,164,104,Repair,4,0.0164,0.5366,23.42,44.5,Branched
1073,4,56.56,-11.19,53.88,-103.78,0.257,1.055,0.715,0.4836,0.9279,0.143,Panel_A,14,2.0,Fluorescent,72.5,Mark,67.92,148.3,Engaged,Tap,Passive,0.4173,Cautious,42.47,17,166,138,Repair,3,0.9124,0.6357,7.4,41.1,Dynamic
1073,4,58.1,128.93,78.42,-100.3,0.674,1.245,0.779,0.6281,0.8313,0.537,Panel_A,8,4.0,Dim,43.0,Halt,97.83,198.0,Calm,Indicate,Active,0.0437,Cautious,46.94,4,136,166,Repair,4,0.4567,0.3927,19.11,44.9,Dynamic
1073,4,61.27,148.05,81.34,41.12,0.843,1.727,-0.104,0.9093,0.5668,0.842,None,6,0.0,Fluorescent,18.8,Proceed,85.08,216.4,Calm,Tap,Moderate,0.2397,Alert,16.59,8,186,168,Briefing,4,0.1245,0.3165,12.47,42.0,Sequential
1073,4,98.19,172.73,59.6,-130.75,-0.398,0.505,1.141,0.6749,0.8153,0.956,Valve_C,20,2.0,Dim,63.2,Proceed,81.35,131.6,Tense,None,Moderate,0.3572,Composed,92.49,17,134,154,Inspection,1,0.0708,0.6113,17.05,43.5,Dynamic
1073,5,47.03,46.52,31.94,158.18,0.528,0.572,1.132,0.9577,0.7693,0.1,Panel_B,11,4.0,Dim,17.1,Halt,70.2,129.7,Tense,None,Moderate,0.7631,Satisfied,87.7,0,146,172,Briefing,2,0.8983,0.2448,7.41,41.6,Dynamic
1073,6,23.95,73.39,-86.56,-128.35,-0.136,1.156,-0.236,0.0222,0.9129,0.262,Terminal_D,3,4.0,Fluorescent,10.8,Proceed,99.52,112.7,Calm,Indicate,Active,0.24,Cautious,36.67,21,176,162,Repair,4,0.7612,0.356,39.16,37.9,Sequential
1084,3,2.31,76.16,-42.43,29.14,0.073,0.396,-0.357,0.1044,0.1322,0.42,Terminal_D,9,2.0,Ambient,61.7,Proceed,55.49,164.7,Tense,None,Active,0.5601,Cautious,13.23,18,182,188,Inspection,3,0.6148,0.5488,17.74,47.5,Sequential
1084,4,36.92,102.14,69.35,-162.61,0.629,1.438,0.817,0.8969,0.2564,0.532,Panel_B,7,2.0,Ambient,91.0,Proceed,78.25,201.5,Calm,Tap,Moderate,0.3129,Cautious,37.19,15,150,108,Briefing,3,0.4434,0.6052,3.72,55.2,Branched
1084,4,69.77,-67.92,66.56,92.2,-0.665,1.836,1.4,0.8741,0.5822,0.089,None,15,3.0,Dim,50.0,Proceed,71.66,240.8,Tense,Tap,Passive,0.565,Composed,105.82,12,196,164,Briefing,2,0.941,0.4992,13.27,45.1,Sequential
1084,5,59.94,126.08,-37.24,13.52,-0.589,0.491,0.005,1.0,0.9276,0.452,Valve_C,13,0.0,Dim,62.2,Assist,83.98,175.5,Calm,None,Active,0.7185,Alert,54.98,12,152,170,Repair,2,0.5759,0.5192,27.67,52.1,Dynamic
1084,5,76.15,-122.81,-3.42,-137.42,0.201,0.36,1.183,0.1141,0.6774,0.367,Terminal_D,11,4.0,Dim,16.4,Proceed,100.37,223.3,Tense,None,Moderate,0.4334,Cautious,52.98,24,164,168,Diagnosis,5,,0.5199,6.51,30.8,Sequential
1084,6,3.72,-94.48,-33.77,43.4,-0.467,1.172,0.74,0.7663,0.2554,0.196,Panel_A,16,0.0,Ambient,81.1,Mark,75.6,215.4,Tense,Indicate,Passive,0.4,Satisfied,21.03,21,106,194,Briefing,1,0.812,0.6597,9.74,48.3,Sequential
1084,6,90.16,118.87,-10.08,-130.91,-0.497,0.775,1.139,0.6618,0.7912,0.141,None,18,2.0,Fluorescent,33.4,Proceed,87.68,134.5,Frustrated,Tap,Passive,0.8748,Cautious,58.62,12,166,160,Diagnosis,4,0.9025,0.5352,32.31,32.3,Branched
1084,7,15.19,18.65,7.12,-2.54,0.413,1.604,-0.152,0.2813,0.7698,0.116,None,16,2.0,Dim,37.6,Halt,101.31,223.5,Frustrated,Grip,Moderate,0.1068,Cautious,91.33,5,154,116,Inspection,3,0.9312,0.4425,54.27,44.5,Branched
1084,7,94.93,-164.02,-9.4,-126.65,-0.591,1.424,0.236,0.6764,0.8399,0.55,,11,4.0,Ambient,18.2,Halt,45.87,219.5,Engaged,Indicate,Active,0.5748,Alert,33.21,31,172,124,Inspection,4,0.3845,0.5509,21.49,46.3,Sequential
1089,2,2.07,7.33,-24.84,117.91,0.422,0.753,0.302,0.6453,0.4253,0.146,Valve_C,10,5.0,Dim,75.2,Assist,65.77,195.1,Engaged,Grip,Moderate,0.4806,Alert,83.88,12,146,146,Repair,4,0.838,0.5906,2.39,36.3,Dynamic
1089,2,68.24,64.21,-72.23,48.1,-0.678,1.681,0.246,0.5269,0.6906,0.703,Panel_A,6,5.0,Fluorescent,31.8,Halt,75.38,179.9,Engaged,Grip,Passive,0.9208,Alert,44.44,4,144,186,Diagnosis,5,0.2964,0.3607,4.13,42.0,Sequential
1089,3,5.31,114.76,39.65,83.03,-0.527,1.395,0.837,0.7433,0.8483,0.675,Panel_A,18,5.0,Fluorescent,98.2,Assist,73.04,202.6,Calm,None,Passive,0.0816,Composed,76.01,20,102,192,Inspection,4,0.3192,0.8245,7.13,41.8,Dynamic
1089,4,15.0,138.91,-72.67,-156.23,0.444,1.607,0.153,0.9173,0.1748,0.246,Panel_B,6,2.0,Ambient,88.8,Proceed,59.56,230.0,Calm,Tap,Passive,0.8154,Alert,114.42,4,148,194,Inspection,3,0.7381,0.5002,16.97,55.7,Dynamic
1089,5,41.52,-158.33,-87.11,-115.65,-0.259,1.081,-0.058,0.3593,0.9611,0.754,Panel_A,2,4.0,Ambient,72.3,None,100.63,215.5,Tense,Indicate,Active,0.316,Composed,103.66,27,134,136,Inspection,4,0.2325,0.6067,1.39,51.4,Sequential
1089,7,21.57,-75.51,-5.37,-61.17,0.882,1.129,-0.091,0.7857,0.0564,0.41,Panel_A,2,0.0,Ambient,12.5,Assist,76.42,165.4,Frustrated,Indicate,Active,0.6898,Cautious,45.18,13,146,164,Inspection,5,0.5821,0.318,1.95,31.4,Sequential
1089,7,31.11,-23.69,-89.02,82.79,0.802,1.588,1.001,0.9946,0.4981,0.304,Panel_A,16,1.0,Fluorescent,100.0,Mark,94.25,180.2,Engaged,Indicate,Passive,0.2945,Cautious,5.61,2,136,162,Briefing,4,0.7535,0.6674,19.08,32.3,Sequential
1091,1,87.4,-99.15,-8.37,90.81,0.598,1.51,1.069,0.815,0.0835,0.504,Valve_C,3,2.0,Fluorescent,9.8,None,55.73,128.6,Tense,None,Passive,0.9787,Composed,30.5,8,116,114,Inspection,4,0.4844,0.2509,6.12,28.8,Branched
1091,1,95.52,-45.76,-54.86,166.02,-0.671,0.761,0.328,0.7514,0.7548,0.752,Terminal_D,9,4.0,Fluorescent,56.4,Assist,93.92,199.5,Tense,None,Passive,0.2282,Alert,110.16,15,134,182,Diagnosis,5,0.2187,0.5669,21.33,44.8,Branched
1091,2,14.29,111.73,63.82,-26.79,-0.619,1.41,0.089,0.1255,0.106,0.152,None,9,3.0,Fluorescent,20.8,Halt,102.75,125.1,Calm,Tap,Moderate,0.5148,Satisfied,63.41,22,134,174,Briefing,4,0.8778,0.4669,31.33,44.7,Dynamic
1091,3,6.94,143.01,8.24,-24.57,-0.797,0.326,-0.128,0.5,0.2803,0.723,Panel_A,15,2.0,Dim,20.3,Proceed,88.2,179.3,Frustrated,Tap,Active,0.6742,Alert,82.36,8,176,150,Briefing,3,0.3222,0.394,5.28,51.6,Sequential
1091,3,46.43,-44.96,58.71,126.24,-0.653,1.642,-0.294,0.6646,0.9206,0.687,Terminal_D,2,1.0,Dim,63.3,Mark,88.92,133.3,Calm,Indicate,Passive,0.4631,Satisfied,107.66,0,166,110,Briefing,3,0.3219,0.3343,11.09,48.9,Branched
1091,3,83.71,80.02,-12.99,-166.34,-0.731,0.721,0.143,0.651,0.0078,0.706,None,4,5.0,Fluorescent,19.8,Assist,70.79,221.1,Engaged,Indicate,Moderate,0.3275,Composed,32.93,21,150,188,Diagnosis,2,0.2525,0.3388,5.59,50.5,Sequential
1091,4,22.56,-175.77,-48.23,4.23,0.316,0.291,1.352,0.6544,0.7369,0.728,Panel_A,5,4.0,Ambient,37.4,Mark,90.55,237.1,Engaged,Grip,Moderate,0.6468,Cautious,83.22,12,112,156,Inspection,2,0.2605,0.3415,2.24,39.7,Dynamic
1091,6,56.92,37.57,7.11,-40.42,1.004,1.805,-0.262,0.3845,0.0795,0.067,Valve_C,6,3.0,Dim,13.0,Halt,55.19,142.8,Tense,Grip,Passive,0.9913,Alert,89.65,9,176,170,Repair,1,0.9626,0.214,5.33,45.3,Dynamic
1091,7,17.06,-0.02,82.09,-137.19,-0.028,0.728,-0.296,0.9121,0.5172,0.309,None,14,3.0,Ambient,61.2,Proceed,86.41,172.9,Frustrated,Indicate,Passive,0.6149,Alert,29.91,8,122,106,Inspection,2,0.7159,0.4958,5.1,54.1,Dynamic
1091,7,38.94,175.03,43.22,112.3,0.981,0.476,0.98,0.2573,0.1649,0.277,Panel_B,6,0.0,Fluorescent,99.4,Proceed,43.39,254.5,Calm,Indicate,Passive,0.253,Cautious,60.58,13,178,126,Diagnosis,5,,0.6676,4.07,45.9,Dynamic
1091,7,66.49,151.08,-34.19,-25.78,0.266,1.851,-0.225,0.1677,0.6079,0.297,Panel_A,10,2.0,Fluorescent,14.7,None,68.27,253.2,Calm,None,Passive,0.3769,Alert,0.0,11,110,176,Briefing,5,0.7017,0.401,21.4,41.5,Branched
1092,1,49.82,54.08,-46.27,-71.51,-0.116,1.52,-0.6,0.1572,0.2639,0.112,Terminal_D,3,2.0,Ambient,28.8,Halt,40.05,138.4,Calm,Grip,Active,0.5805,Alert,72.99,2,114,172,Diagnosis,1,0.9256,0.1805,5.64,44.1,Branched
1092,3,1.89,95.02,6.36,122.18,0.575,1.523,1.4,0.4369,0.696,0.408,Valve_C,2,4.0,Fluorescent,15.6,Mark,95.87,140.8,Frustrated,Indicate,Moderate,0.4546,Cautious,75.32,27,114,116,Diagnosis,3,0.6465,0.3783,1.0,37.5,Dynamic
1092,3,21.04,55.07,-77.38,-29.13,-1.105,0.877,0.178,0.3731,0.0436,,Valve_C,14,3.0,Ambient,29.0,Assist,59.59,177.5,Calm,Indicate,Moderate,0.911,Cautious,61.9,9,160,112,Repair,1,0.2466,0.3609,3.09,47.5,Sequential
1092,4,78.76,-17.74,10.8,142.16,-0.088,0.817,0.039,0.8323,0.4809,0.505,Valve_C,10,5.0,Dim,10.6,Halt,48.81,235.0,Calm,,Passive,0.4483,Alert,67.28,26,186,166,Diagnosis,5,0.4495,0.5039,9.25,51.4,Sequential
1092,5,98.8,141.88,-59.51,-100.18,0.699,1.561,-0.002,0.8919,0.6023,0.516,None,12,3.0,Fluorescent,90.6,Mark,60.7,187.6,Engaged,Indicate,Moderate,0.513,Cautious,81.54,2,162,178,Repair,1,,0.4991,8.14,48.7,Dynamic
1092,6,97.58,-141.65,-70.76,-161.56,0.248,1.536,1.288,0.5593,0.057,0.169,Panel_A,4,3.0,Fluorescent,26.0,Assist,71.56,172.4,Tense,Indicate,Moderate,0.3757,Alert,60.52,20,196,112,Repair,4,0.8235,0.4127,29.53,39.8,Sequential
1092,7,68.61,149.06,37.08,123.42,0.799,0.867,0.598,0.6562,0.0028,0.693,None,7,1.0,Fluorescent,68.9,None,81.21,160.6,Frustrated,Indicate,Active,0.1987,Alert,52.74,29,156,136,Diagnosis,5,0.3713,0.6973,15.19,40.3,Sequential
1094,1,2.19,148.08,78.11,53.51,0.294,1.683,-0.113,0.4702,0.8507,,None,8,5.0,Ambient,40.8,Mark,82.87,215.5,Calm,Grip,Passive,0.6229,Alert,56.93,7,134,126,Repair,3,0.7494,0.3784,1.89,45.5,Branched
1094,2,61.4,-22.09,-88.89,-128.25,-0.305,1.887,-0.066,0.2015,0.6072,0.369,Valve_C,16,1.0,Fluorescent,50.3,None,81.41,225.0,Tense,Grip,Moderate,0.0126,Alert,99.77,24,110,124,Briefing,3,0.6736,0.6354,9.15,42.7,Dynamic
1094,2,71.95,-99.96,69.38,-175.99,-1.041,0.694,0.85,0.8812,0.4418,0.958,Panel_A,14,1.0,Fluorescent,4.8,,69.28,210.9,Frustrated,Grip,Active,0.6335,Satisfied,89.34,6,128,150,Inspection,2,0.083,0.2828,1.69,45.4,Dynamic
1094,4,14.03,126.14,39.54,52.41,0.892,1.205,-0.069,0.6602,0.7248,0.433,Terminal_D,2,0.0,Dim,66.0,Mark,88.94,164.8,Frustrated,None,Passive,0.025,Composed,62.33,31,128,156,Repair,4,0.5706,0.6159,9.39,36.5,Dynamic
1094,4,67.31,-83.31,-85.3,-149.16,0.128,1.478,-0.605,0.7759,0.1417,0.637,Panel_B,4,3.0,Dim,73.0,Halt,64.76,182.0,Engaged,Indicate,Moderate,0.6796,Composed,61.36,26,120,140,Repair,5,0.3424,0.6541,10.61,32.0,Branched
1094,4,75.56,64.37,-52.16,-154.99,-0.576,1.455,1.358,0.218,0.9663,0.842,Valve_C,7,4.0,Dim,77.6,Halt,43.54,173.7,Engaged,None,Moderate,0.7247,Alert,34.31,13,140,160,Briefing,1,0.2054,0.4827,6.31,47.5,Branched
1094,4,92.06,-80.37,12.36,157.39,0.784,0.468,0.793,0.7073,0.0894,0.225,Panel_B,5,,Ambient,3.9,Proceed,93.28,217.5,Tense,None,Moderate,0.205,Satisfied,52.76,19,184,104,Inspection,2,0.7961,0.2789,5.91,40.8,Sequential
1094,5,17.6,131.16,-78.21,7.04,1.035,0.482,0.738,0.8066,0.3634,0.392,None,2,1.0,Fluorescent,0.0,None,58.09,240.8,Tense,Tap,Moderate,0.6005,Composed,16.94,20,162,150,Diagnosis,1,0.564,0.209,16.37,30.9,Sequential
1094,5,23.95,-60.41,-58.78,-116.85,-0.32,1.169,0.38,0.8491,0.6565,0.81,Panel_A,2,3.0,Ambient,22.3,Halt,77.25,246.6,Tense,Tap,Passive,0.0672,Cautious,113.85,15,124,146,Briefing,2,0.1251,0.278,26.28,37.9,Branched
1094,5,46.19,-96.24,-59.22,6.91,0.511,0.879,1.399,0.9133,0.435,0.078,None,3,2.0,Dim,2.0,Proceed,104.32,138.8,Frustrated,Grip,Moderate,0.9165,Cautious,57.99,8,106,176,Inspection,3,0.8327,0.1936,9.38,55.2,Dynamic
1094,5,55.81,108.83,53.97,55.06,-0.365,0.232,1.065,0.5643,0.012,0.152,Panel_A,16,3.0,Fluorescent,71.1,Proceed,42.76,204.5,Engaged,Tap,Passive,0.8344,Cautious,102.6,24,144,172,Briefing,5,0.8433,0.7682,13.91,47.9,Sequential
1094,5,98.58,-115.16,-69.13,-107.79,0.544,1.799,1.4,0.5517,0.515,0.58,Valve_C,4,1.0,Fluorescent,58.8,Assist,39.42,191.2,Calm,Grip,Active,0.0,Satisfied,92.28,13,164,164,Repair,4,0.3792,0.4728,1.0,48.8,Sequential
1094,6,16.24,-114.43,83.88,57.26,0.122,0.965,0.513,0.19,0.4359,0.285,Panel_A,11,2.0,Dim,82.1,Proceed,86.64,240.5,Tense,Indicate,Moderate,0.4858,Satisfied,80.61,24,142,132,Inspection,3,0.786,0.6898,15.33,41.5,Branched
1094,7,11.84,81.58,8.92,-42.79,-0.066,1.806,1.257,0.8495,0.691,0.637,Panel_B,17,2.0,Dim,31.1,Halt,94.69,162.0,Tense,Indicate,Passive,0.0444,Composed,85.33,22,106,144,Diagnosis,2,0.3048,0.5339,12.17,33.9,Sequential
1100,1,28.5,-137.1,81.25,-134.6,-0.553,1.145,0.306,0.5741,0.3299,0.792,None,15,2.0,Ambient,53.6,Assist,43.15,202.7,Engaged,,Active,0.7992,Cautious,74.19,4,128,138,Briefing,2,0.1876,0.4493,7.38,42.4,Dynamic
1100,1,68.14,-96.09,-64.24,-131.5,-0.176,0.636,-0.213,0.477,0.9243,0.336,Terminal_D,11,2.0,Dim,79.4,Mark,104.23,229.8,Tense,Indicate,Passive,0.6981,Satisfied,69.74,17,192,126,Briefing,4,0.646,0.6557,11.09,30.4,Branched
1100,3,41.5,-59.27,-48.99,-58.91,0.334,1.464,0.404,0.4123,0.6741,,None,10,5.0,Ambient,56.7,Mark,65.58,140.6,Frustrated,None,Moderate,0.6118,Alert,3.87,28,148,106,Diagnosis,3,0.3598,0.6208,12.9,29.6,Dynamic
1100,4,78.18,127.6,-58.7,-92.47,0.763,0.793,0.73,0.7855,0.0403,0.192,Valve_C,15,2.0,Dim,27.7,Halt,89.32,209.0,Frustrated,Indicate,Passive,0.0,Satisfied,86.87,6,132,196,Briefing,1,0.7705,0.3443,1.0,52.8,Sequential
1100,5,32.74,35.98,-43.41,121.03,0.612,1.629,-0.158,0.8499,0.6646,,Panel_B,9,4.0,Ambient,98.1,Proceed,79.26,164.3,Calm,Tap,Passive,0.6069,Satisfied,82.71,2,104,158,Repair,2,0.8561,0.5212,4.92,47.0,Sequential
1100,6,76.96,-8.03,24.57,122.61,1.218,0.957,-0.266,0.1204,0.4709,0.423,None,1,3.0,Dim,63.0,None,90.92,213.3,Engaged,Indicate,Passive,0.8155,Alert,98.27,14,160,130,Briefing,1,0.5436,0.3712,6.99,54.6,Dynamic
1100,6,86.61,157.5,-38.18,-33.6,1.17,1.195,0.344,0.1312,0.0,0.406,Panel_B,9,1.0,Ambient,64.5,Assist,100.61,230.0,Engaged,Tap,Passive,0.5718,Alert,72.64,12,160,144,Repair,5,0.5639,0.5718,22.01,50.2,Dynamic
1100,7,13.43,114.6,-65.68,-27.63,-0.821,1.801,-0.429,0.536,0.4481,0.762,Terminal_D,19,1.0,Ambient,60.7,Mark,43.06,216.2,Engaged,None,Active,0.9264,Composed,20.17,28,116,128,Diagnosis,4,,0.7671,9.31,31.2,Branched
1101,1,21.18,102.3,-47.76,-32.64,0.802,1.082,0.361,0.6968,0.6448,0.544,None,16,5.0,Fluorescent,13.0,Assist,93.89,151.8,Calm,Tap,Active,0.3919,Cautious,78.79,14,144,170,Inspection,1,0.4866,0.3667,1.71,44.8,Dynamic
1101,1,93.77,-121.24,-16.46,-105.29,-0.207,0.858,1.205,0.0592,0.2928,0.662,Panel_A,5,0.0,Fluorescent,49.8,Mark,65.44,158.8,Frustrated,Grip,Passive,0.9166,Alert,78.65,27,194,126,Diagnosis,2,0.365,0.5021,22.63,50.3,Sequential
1101,2,75.31,158.73,72.38,118.06,-1.012,1.778,0.446,0.8532,0.4778,0.375,Panel_B,16,0.0,Ambient,70.3,Halt,56.75,231.2,Tense,Indicate,Moderate,0.0211,Alert,97.7,9,172,154,Briefing,3,0.6017,0.5882,10.22,36.5,Dynamic
1101,2,86.63,55.36,69.19,-73.98,-0.873,0.781,0.376,0.2891,0.7848,0.786,Panel_A,1,0.0,Ambient,24.1,Mark,75.64,245.9,Engaged,Grip,Moderate,0.3225,Composed,28.0,15,154,164,Inspection,1,0.2108,0.2429,6.8,41.0,Branched
1101,3,29.36,-4.28,-9.53,132.87,-0.927,1.441,-0.812,0.4437,0.6473,0.19,None,14,3.0,Ambient,17.4,None,56.1,184.5,Calm,Tap,Passive,0.1959,Alert,73.01,2,130,144,Repair,4,0.8511,0.3556,16.84,40.0,Branched
1101,3,43.84,-167.84,80.42,-16.39,1.098,1.758,0.472,0.554,0.2846,0.45,None,13,,Ambient,80.9,Mark,85.44,138.3,Tense,Indicate,Moderate,0.501,Cautious,20.55,29,150,110,Inspection,2,0.5708,0.7174,7.82,31.9,Sequential
1101,3,67.86,-159.48,-0.59,38.81,1.24,0.401,1.4,0.4463,0.256,0.843,Valve_C,2,5.0,Ambient,46.8,Proceed,60.33,232.0,Frustrated,None,Passive,0.9557,Satisfied,65.01,15,182,158,Inspection,3,0.1403,0.3937,4.95,34.6,Dynamic
1101,3,82.26,-22.0,4.73,151.32,-0.102,0.725,0.805,0.684,0.7737,0.56,Panel_A,13,3.0,Dim,76.9,Mark,81.46,124.1,Frustrated,Indicate,Active,0.5379,Satisfied,78.15,20,188,130,Inspection,5,0.4583,0.7231,7.92,46.6,Dynamic
1101,4,41.34,-143.62,-88.9,-151.05,0.172,1.118,0.084,0.1843,0.2262,0.392,Panel_B,12,2.0,Fluorescent,37.6,None,105.0,233.6,Frustrated,Grip,Passive,0.1264,Cautious,1.36,5,102,102,Repair,4,0.5588,0.427,4.07,49.4,Dynamic
1101,4,49.15,6.05,-25.15,-86.51,-0.589,1.845,1.138,0.3557,0.9335,0.416,Panel_A,9,2.0,Fluorescent,42.1,Mark,69.89,211.1,Tense,Tap,Passive,0.0798,Composed,76.76,15,182,102,Diagnosis,1,0.6019,0.3968,4.91,50.1,Branched
1101,6,45.26,-164.44,64.7,169.75,-0.382,1.587,0.193,0.2952,0.3746,0.217,Panel_A,5,0.0,Ambient,90.0,Assist,84.41,225.4,Frustrated,Tap,Moderate,0.6459,Composed,65.8,25,138,146,Diagnosis,5,0.7731,0.7171,10.99,37.1,Sequential
1101,7,2.24,-124.86,66.71,109.5,0.746,0.452,1.397,0.354,0.1598,0.245,Terminal_D,1,4.0,Fluorescent,60.1,None,48.32,234.6,Tense,Grip,Passive,0.4281,Alert,81.03,4,186,176,Inspection,1,0.7822,0.283,6.29,47.2,Sequential
1115,1,33.82,-39.68,35.33,115.39,-0.491,1.538,-0.094,0.7483,0.9301,0.56,Terminal_D,3,5.0,Fluorescent,48.0,Assist,79.88,194.6,Calm,Indicate,Active,0.605,Satisfied,79.67,13,156,184,Briefing,1,0.4744,0.3337,6.21,38.0,Sequential
1115,1,77.92,-145.31,-75.31,-113.69,-0.082,1.29,0.938,0.7588,0.0966,0.662,Panel_A,1,3.0,Fluorescent,82.1,Mark,87.82,213.8,Tense,None,Passive,0.7405,Composed,71.5,4,116,184,Inspection,3,0.3364,0.42,16.69,36.2,Branched
1115,2,1.89,32.68,-60.52,93.2,-0.098,0.862,1.4,0.332,0.0902,0.061,Terminal_D,2,0.0,Fluorescent,10.6,Mark,63.26,181.0,Tense,Tap,Active,0.3949,Satisfied,61.15,12,182,102,Diagnosis,3,0.9263,0.2436,5.58,53.1,Sequential
1115,2,94.87,-129.14,-33.93,118.65,-0.174,0.766,0.779,0.0677,0.6968,0.56,Valve_C,8,3.0,Fluorescent,53.0,Mark,40.27,249.8,Calm,,Moderate,0.434,Composed,31.4,26,182,190,Inspection,5,0.459,0.6295,3.72,45.1,Sequential
1115,3,65.26,-111.16,59.12,164.01,1.108,1.85,1.375,0.5594,0.946,0.05,None,10,1.0,Fluorescent,84.2,Proceed,90.45,162.9,Frustrated,Indicate,Moderate,0.1229,Satisfied,96.18,6,196,138,Repair,2,0.9358,0.5152,16.89,47.6,Sequential
1115,3,95.03,137.71,-58.47,77.79,0.159,1.762,1.4,0.6862,0.9591,0.141,None,3,4.0,Dim,34.5,Proceed,71.49,207.3,Calm,Indicate,Passive,0.3773,Composed,39.86,5,140,146,Briefing,5,0.8662,0.3439,10.69,35.9,Branched
1115,4,41.48,143.41,-30.19,-170.04,-0.403,1.903,0.374,0.822,0.0581,0.514,Panel_A,5,5.0,Ambient,74.9,Assist,39.63,189.0,Engaged,Grip,Moderate,0.8285,Composed,6.24,25,166,146,Repair,4,0.4517,0.6343,2.96,39.2,Dynamic
1115,4,81.09,-85.62,-63.28,-117.56,0.579,1.057,-0.26,1.0,0.3677,0.951,Terminal_D,17,2.0,Dim,43.0,Halt,55.57,127.1,Tense,Grip,Moderate,0.6418,Composed,62.01,13,154,186,Diagnosis,2,0.1397,0.5052,2.06,46.2,Branched
1115,5,41.22,57.99,15.57,-91.58,-0.543,0.393,-0.22,0.8642,0.9491,0.62,Panel_A,20,2.0,Dim,46.9,Assist,86.92,138.7,Frustrated,Grip,Passive,0.8193,Composed,74.54,17,146,176,Diagnosis,5,0.3721,0.6742,14.54,52.4,Sequential
1115,6,16.17,10.25,-59.54,-38.12,-0.42,0.855,0.819,0.4584,0.3547,0.867,Panel_B,4,2.0,Dim,100.0,Proceed,91.67,171.5,Engaged,Grip,Moderate,0.5982,Composed,43.05,17,140,158,Repair,4,,0.6483,9.8,40.1,Branched
1115,6,79.46,-39.31,36.26,-83.22,0.478,0.816,0.403,0.2967,0.3697,0.144,Panel_A,6,2.0,Dim,61.8,Proceed,55.52,149.4,Tense,Tap,Passive,0.404,Cautious,92.22,23,132,160,Briefing,1,0.8238,0.4942,16.23,49.0,Dynamic
1115,7,31.11,-54.88,-7.34,-39.34,-0.073,1.322,1.4,0.4209,0.8524,0.687,Panel_B,1,2.0,Fluorescent,81.0,Halt,43.38,193.3,Frustrated,Grip,Active,0.5686,Cautious,55.37,5,188,102,Repair,4,0.2717,0.4539,64.18,43.5,Sequential
1115,7,99.21,-137.18,24.89,135.56,-0.917,1.135,0.095,0.2719,0.0522,0.739,Panel_B,4,4.0,Dim,6.4,None,39.75,170.6,Engaged,Grip,Passive,1.0,Composed,5.69,7,108,166,Briefing,5,0.2356,0.2725,6.17,37.8,Branched
1121,3,10.59,-174.03,-12.55,26.44,0.02,0.406,1.012,0.674,0.0711,0.963,Terminal_D,18,3.0,Ambient,18.1,Assist,94.54,202.0,Tense,None,Passive,0.7624,Alert,38.44,8,130,192,Repair,5,0.0783,0.4804,68.87,43.5,Sequential
1121,4,23.43,-159.23,-16.02,-79.12,1.176,0.863,1.115,0.6216,0.3586,0.236,Panel_B,8,2.0,Ambient,60.1,Mark,78.02,182.0,Frustrated,,Active,0.6565,Composed,57.87,20,138,118,Diagnosis,2,0.6896,0.5175,22.41,53.1,Sequential
1121,4,58.85,49.48,80.71,100.15,-0.976,0.571,0.013,0.9062,0.0631,0.183,Valve_C,14,3.0,Dim,2.5,Assist,65.47,237.3,Calm,Grip,Passive,0.4431,Composed,0.0,2,184,180,Repair,2,0.8499,0.2435,4.98,39.6,Sequential
1121,5,1.32,165.74,-36.41,121.98,0.938,0.322,0.764,0.2275,0.7934,0.145,,5,4.0,Fluorescent,92.8,None,83.05,116.5,Frustrated,Indicate,Active,0.3448,Cautious,48.96,28,152,190,Briefing,2,0.8325,0.6604,8.32,47.2,Branched
1121,5,7.4,-91.77,77.68,-140.77,0.438,1.106,-0.66,0.336,0.8069,0.429,Panel_A,4,2.0,Dim,56.1,Mark,46.03,175.3,Calm,Tap,Passive,0.8435,Satisfied,77.49,21,106,134,Diagnosis,1,0.5025,0.4359,1.0,50.8,Branched
1121,5,29.24,-66.8,-31.27,-29.27,0.919,1.481,0.183,0.8129,0.6833,0.498,Panel_A,9,1.0,Ambient,5.9,Assist,104.41,208.0,Frustrated,Indicate,Active,0.4284,Composed,82.62,15,184,172,Inspection,3,0.5293,0.3301,6.44,26.3,Dynamic
1121,5,54.72,-37.98,-23.39,52.99,-0.927,1.667,1.4,0.2414,0.9178,0.978,Panel_A,5,5.0,Ambient,62.7,Mark,85.11,127.3,Calm,None,Active,0.573,Satisfied,12.23,17,154,138,Briefing,4,,0.5291,1.0,37.5,Dynamic
1121,6,5.65,-46.5,-35.03,163.79,0.145,0.467,-0.086,0.7707,0.955,0.416,Panel_B,19,,Ambient,27.7,Mark,44.17,190.9,Tense,None,Moderate,0.2507,Cautious,49.69,11,138,186,Diagnosis,4,0.5509,0.5188,1.0,43.1,Dynamic
1121,6,99.74,129.82,30.39,-141.89,0.767,1.416,1.334,0.3041,0.8442,0.66,Terminal_D,11,0.0,Fluorescent,86.7,Proceed,96.95,233.3,Tense,None,Active,0.8359,Composed,45.62,2,144,158,Inspection,4,0.3708,0.5641,9.1,25.0,Sequential
1126,1,15.86,161.37,73.81,-168.06,0.328,0.468,1.4,0.8701,0.8353,0.262,Panel_B,18,3.0,Ambient,80.0,Halt,66.23,162.6,Frustrated,Indicate,Active,0.8832,Composed,84.85,11,126,132,Briefing,2,0.7413,0.6305,5.72,32.6,Dynamic
1126,1,40.9,87.74,-87.27,-158.03,0.108,1.036,0.794,0.3797,0.7582,0.495,Valve_C,9,4.0,Dim,38.1,None,94.9,129.4,Engaged,Tap,Passive,0.4771,Cautious,79.75,27,192,184,Repair,4,0.542,0.5666,6.93,46.8,Branched
1126,3,18.44,-47.32,83.92,133.65,-0.34,1.316,0.635,0.1732,0.6488,0.519,Terminal_D,5,1.0,Ambient,93.4,Assist,52.36,221.1,Tense,Indicate,Moderate,0.2059,Cautious,5.6,14,140,104,Briefing,1,0.5132,0.5231,2.8,49.6,Sequential
1126,3,76.85,-99.66,-45.24,93.06,0.306,0.419,1.373,0.9242,0.2561,0.483,None,18,3.0,Dim,47.9,None,43.22,128.6,Frustrated,Tap,Passive,0.1711,Composed,82.79,14,138,152,Diagnosis,5,0.4921,0.6316,3.48,28.5,Branched
1126,3,94.79,128.81,5.02,-109.31,0.081,1.311,-0.488,0.3813,0.5948,0.806,None,11,4.0,Ambient,24.5,Proceed,64.35,148.6,Tense,Grip,Active,0.1071,Alert,78.92,13,184,168,Briefing,2,0.2096,0.3723,2.04,35.1,Sequential
1126,4,11.51,-50.6,-45.75,-144.76,0.422,0.838,-0.253,0.4798,0.4334,0.968,Terminal_D,17,2.0,Ambient,81.7,Mark,81.84,216.7,Frustrated,Tap,Passive,0.634,Cautious,44.7,17,118,152,Briefing,2,0.0313,0.6719,16.61,44.9,Dynamic
1126,4,25.78,-28.21,-60.91,-98.28,-1.056,1.229,0.97,0.4564,0.4675,0.621,None,9,4.0,Fluorescent,98.5,None,40.72,203.4,Tense,Grip,Active,0.9187,Composed,21.42,5,170,162,Inspection,1,0.3476,0.5161,26.58,40.4,Branched
1126,4,52.59,146.78,-29.97,31.94,0.618,1.078,0.977,0.1707,0.3312,0.775,Panel_A,3,2.0,Fluorescent,11.8,Mark,70.23,125.0,Frustrated,None,Passive,0.6676,Satisfied,56.94,5,110,164,Briefing,4,0.2395,0.2345,18.79,40.5,Dynamic
1126,4,83.93,132.3,47.29,74.98,-0.536,0.634,1.254,0.0417,0.3023,0.463,Valve_C,10,2.0,Ambient,18.3,Proceed,87.88,214.6,Engaged,None,Moderate,0.2186,Satisfied,11.52,5,114,164,Repair,3,0.5329,0.3067,16.35,32.9,Dynamic
1126,5,95.6,-24.89,75.23,92.1,-0.335,1.579,0.428,0.8074,0.8482,0.974,Valve_C,15,3.0,Fluorescent,5.3,Assist,75.44,245.1,Calm,None,Passive,0.8827,Cautious,45.01,3,108,184,Briefing,4,0.0,0.3324,7.34,49.4,Sequential
1126,7,28.25,-149.28,-27.74,-1.56,0.874,0.779,0.091,0.3819,0.1914,0.993,Panel_B,20,0.0,Fluorescent,57.5,Assist,70.88,140.9,Tense,Tap,Moderate,0.133,Cautious,95.86,23,170,132,Repair,2,0.0,0.6682,5.22,32.0,Sequential
1126,7,88.24,48.01,45.3,35.81,0.426,0.846,-0.652,0.5807,0.9652,0.128,Panel_A,16,1.0,Fluorescent,13.8,Assist,67.53,196.1,Tense,,Active,0.939,Cautious,75.94,2,182,120,Diagnosis,1,0.8154,0.2757,7.87,41.9,Sequential
1127,1,96.8,-166.72,-22.29,174.9,0.019,1.274,-0.295,0.7979,0.5297,0.752,Terminal_D,9,4.0,Fluorescent,15.7,Assist,36.04,192.3,Tense,None,Active,0.2861,Composed,46.7,22,164,112,Repair,5,0.2634,0.4791,1.84,25.0,Branched
1127,2,66.67,139.05,4.08,82.99,-0.685,1.062,0.054,0.6177,0.1228,0.05,None,17,2.0,Fluorescent,60.7,Proceed,96.16,208.8,Frustrated,Grip,Passive,0.7634,Alert,15.38,17,108,148,Inspection,4,0.968,0.6584,10.41,48.6,Dynamic
1127,3,86.53,-11.73,44.14,106.19,-0.286,0.441,0.002,0.1556,0.6441,0.17,Panel_B,12,4.0,Dim,100.0,,39.51,184.3,Frustrated,Grip,Moderate,0.4177,Cautious,42.52,26,170,198,Diagnosis,2,0.777,0.7495,1.84,47.5,Sequential
1127,4,8.8,-161.48,36.81,-144.33,0.314,1.096,0.299,0.8236,0.5338,0.672,Valve_C,13,2.0,Ambient,37.0,Assist,59.63,226.3,Tense,Grip,Passive,0.3361,Satisfied,115.68,2,170,162,Inspection,4,0.3127,0.4129,5.46,39.9,Branched
1127,5,67.79,-164.98,62.14,43.06,1.01,0.654,0.773,0.2186,0.4344,,Terminal_D,15,3.0,Dim,76.2,None,75.7,227.4,Frustrated,Grip,Active,0.2795,Composed,44.53,23,164,188,Briefing,4,0.484,0.7368,8.94,48.1,Dynamic
1127,5,75.57,-43.83,-86.96,-0.16,0.714,0.255,0.965,0.7548,0.0364,0.947,,19,3.0,Dim,57.7,Assist,40.4,137.5,Tense,Indicate,Active,0.0,Cautious,64.04,26,106,124,Repair,2,0.0423,0.681,4.2,32.8,Dynamic
1127,6,11.08,-41.19,12.02,145.46,0.757,0.45,-0.412,0.2391,0.4641,0.977,Panel_B,18,3.0,Fluorescent,21.9,Halt,60.79,178.1,Tense,Indicate,Moderate,0.4798,Alert,17.59,7,158,180,Repair,4,0.0403,0.4559,13.32,44.3,Branched
1127,6,34.81,-168.9,-90.0,-158.87,-0.817,0.578,0.677,0.7348,0.6325,0.511,None,2,,Fluorescent,38.3,Halt,101.41,195.8,Calm,Grip,Active,0.379,Cautious,56.81,23,144,112,Diagnosis,1,0.4847,0.3665,1.0,40.7,Branched
1127,6,64.31,-171.23,-32.84,165.54,1.133,1.457,1.271,0.9013,0.9995,0.946,Valve_C,6,2.0,Fluorescent,74.6,Assist,65.29,176.9,Frustrated,None,Passive,0.0981,Cautious,7.53,18,166,142,Briefing,4,0.1207,0.5899,1.0,25.0,Sequential
1142,1,52.33,169.7,48.49,-9.61,0.839,1.546,0.586,0.4445,0.7513,0.719,None,11,3.0,Fluorescent,54.7,Proceed,54.96,183.4,Engaged,Indicate,Passive,0.1893,Cautious,77.58,7,102,132,Inspection,4,0.3493,0.4911,20.0,58.5,Sequential
1142,1,54.53,155.13,-57.45,-15.52,0.121,0.651,1.4,0.3193,0.0607,0.969,Valve_C,14,3.0,Ambient,14.1,Mark,73.96,176.5,Calm,Tap,Passive,0.9768,Composed,105.92,4,166,112,Diagnosis,3,0.0,0.3297,12.47,42.0,Sequential
1142,1,55.59,92.3,-40.3,60.14,-0.908,0.766,0.32,0.413,0.3234,0.471,Terminal_D,3,2.0,Ambient,67.5,None,41.8,143.2,Engaged,Indicate,Moderate,0.0879,Cautious,104.12,11,150,140,Inspection,4,0.5325,0.4763,1.0,33.1,Branched
1142,2,19.16,31.37,31.95,-74.55,0.024,1.615,0.368,0.0826,0.2733,0.096,None,5,2.0,Ambient,90.5,Assist,40.16,185.7,Tense,Indicate,Moderate,0.6768,Cautious,89.15,13,180,104,Briefing,3,0.8699,0.5651,4.23,35.2,Branched
1142,4,55.8,-175.73,-59.81,180.0,-1.018,1.602,1.4,0.2934,0.3733,,Panel_A,19,1.0,Ambient,92.3,Halt,77.49,154.4,Engaged,Tap,Active,0.0586,Alert,9.94,28,156,176,Repair,5,0.9186,0.9077,12.31,49.2,Dynamic
1142,5,9.66,-106.22,-24.86,-66.92,0.529,1.115,-0.733,0.9132,0.161,0.113,Terminal_D,14,1.0,Fluorescent,60.6,None,94.69,195.0,Tense,Indicate,Active,0.0446,Cautious,40.91,23,166,116,Briefing,4,0.9085,0.6709,23.18,48.8,Sequential
1142,6,58.13,117.41,41.0,69.21,0.043,1.661,-0.216,0.2698,0.4224,0.666,Valve_C,14,3.0,Ambient,93.0,None,96.73,126.8,Engaged,Indicate,Moderate,0.0,Cautious,6.99,29,172,120,Inspection,4,0.331,0.8312,1.0,43.6,Sequential
1142,6,94.34,-103.26,-19.7,-27.66,-0.614,1.855,1.127,0.3753,0.2726,0.782,Panel_B,1,5.0,Ambient,70.2,Mark,65.28,146.4,Frustrated,Tap,Active,0.2283,Composed,112.0,19,180,144,Briefing,3,,0.4955,9.7,44.8,Sequential
1142,7,10.01,-72.57,21.08,50.83,-0.587,0.92,-0.499,0.1335,0.4368,0.531,Terminal_D,14,,Fluorescent,29.1,Assist,66.31,213.4,Frustrated,None,Moderate,0.4133,Satisfied,47.63,27,144,126,Briefing,5,0.4535,0.6219,61.35,40.3,Branched
1142,7,13.02,-91.74,27.54,-97.78,1.116,1.307,-0.345,0.7396,0.4394,0.971,None,16,1.0,Ambient,100.0,Halt,101.47,134.4,Frustrated,None,Moderate,0.6055,Alert,14.64,20,144,174,Briefing,4,0.0103,0.8081,7.86,48.9,Sequential
1142,7,34.36,-119.26,-56.89,49.74,-0.614,0.41,1.222,0.4541,0.277,0.978,Terminal_D,3,3.0,Fluorescent,37.6,None,91.14,134.1,Tense,None,Active,0.2994,Cautious,100.72,24,136,160,Repair,3,0.0,0.4432,9.35,40.3,Sequential
1142,7,43.36,91.19,36.03,-141.74,1.042,0.534,-0.332,0.4203,0.3808,0.607,Valve_C,14,4.0,Fluorescent,89.9,None,95.49,152.9,Tense,Grip,Active,0.0,Alert,7.75,11,112,170,Diagnosis,2,0.4613,0.6197,1.15,55.3,Dynamic
1142,7,62.83,109.52,-65.84,-32.45,0.245,1.577,1.4,0.0853,0.9457,0.221,None,18,1.0,Dim,99.0,Assist,60.63,121.6,Tense,None,Active,0.2396,Cautious,40.22,18,150,162,Repair,1,0.7531,0.7217,34.85,26.8,Sequential
1143,2,2.99,149.1,-54.97,134.51,1.109,1.575,1.086,0.3059,0.0698,0.38,Panel_B,20,1.0,Dim,25.0,Assist,55.72,218.6,Engaged,Indicate,Passive,0.0576,Satisfied,110.44,22,170,172,Repair,5,0.5727,0.6366,39.2,32.0,Branched
1143,2,12.96,55.05,-83.16,156.43,0.007,1.213,0.559,0.2518,0.9313,0.568,Terminal_D,10,1.0,Ambient,64.7,Assist,48.84,149.6,Tense,Indicate,Moderate,0.4934,Composed,100.31,0,178,198,Repair,4,0.4768,0.4601,2.04,27.9,Dynamic
1143,2,36.47,-96.88,-51.84,-3.92,0.573,0.787,0.101,0.4268,0.0008,0.603,Panel_B,10,1.0,Dim,100.0,Proceed,90.3,202.3,Calm,Grip,Passive,0.4036,Alert,7.97,13,110,188,Inspection,5,0.5031,0.7152,1.38,37.5,Dynamic
1143,2,46.32,-72.27,-56.35,-178.31,-0.93,0.468,1.4,0.8905,0.7614,0.184,Valve_C,6,3.0,Dim,90.0,None,53.34,192.6,Tense,Indicate,Moderate,0.8158,Cautious,56.97,26,138,154,Briefing,4,,0.7063,2.3,44.0,Sequential
