Technician_ID,Task_Session,Event_Time_s,Helmet_Yaw,Helmet_Pitch,Helmet_Roll,Glove_X,Glove_Y,Glove_Z,Eyetrack_H,Eyetrack_V,Fixation_Duration_s,Target_Component,Component_Count,Coworker_Visible,Workshop_Lighting,Scene_Complexity_Pct,Spoken_Command,Speech_dB,Articulation_Rate,Voice_Affect,Grasp_Type,Engagement_State,Cognitive_Load,Operator_Affect,Locomotion_cms,Action_Freq,Current_Step,Previous_Step,Task_Phase,Task_Difficulty,Gaze_Stability,Workload_Index,Sensor_Lag_ms,Ambient_Noise_dB,Next_Operator_Action,Workflow_Type
1001,1,83.02,46.4,19.03,154.48,-1.067,1.694,1.4,0.0415,0.6745,0.98,Valve_C,4,4.0,Dim,84.8,Assist,86.09,247.6,Tense,Tap,Active,0.3732,Satisfied,42.42,10,140,160,Inspection,1,0.0,0.4504,4.46,48.3,Manipulate_Component,Dynamic
1001,1,94.8,-135.8,-29.32,-5.72,-0.261,1.1,0.416,0.9107,0.4164,0.13,Terminal_D,11,5.0,Ambient,71.0,Assist,87.35,184.1,Tense,None,Moderate,0.7429,Alert,55.11,22,176,108,Diagnosis,5,0.8339,0.6954,3.14,44.4,Manipulate_Component,Sequential
1001,1,99.18,34.18,-73.35,29.01,1.137,0.637,1.376,0.8514,0.4216,0.515,,10,2.0,Ambient,19.9,Assist,63.47,163.7,Engaged,Grip,Moderate,0.6892,Composed,12.44,26,170,156,Inspection,1,0.4956,0.4164,6.05,48.0,Navigate_To_Point,Dynamic
1001,2,30.89,-175.02,-60.77,-141.52,1.232,1.706,1.118,0.1403,0.7856,0.192,None,8,4.0,Dim,10.7,None,88.13,211.0,Frustrated,Tap,Passive,0.8209,Composed,47.69,28,148,196,Inspection,5,0.809,0.4971,9.26,48.3,Navigate_To_Point,Branched
1001,3,73.93,-149.72,-63.08,100.1,-0.682,0.751,1.4,0.0057,0.2251,,Terminal_D,8,2.0,Dim,27.4,Proceed,46.85,207.7,Engaged,Grip,Moderate,0.5625,Cautious,53.08,22,106,132,Inspection,4,0.1696,0.4787,6.54,49.7,Manipulate_Component,Branched
1001,3,87.04,55.6,-7.13,134.84,0.893,1.567,1.13,0.491,0.9466,0.382,Valve_C,3,1.0,Ambient,92.0,Assist,68.81,203.3,Calm,Grip,Moderate,0.2571,Satisfied,81.96,14,154,164,Briefing,3,,0.5555,2.89,41.3,Navigate_To_Point,Sequential
1001,5,74.72,-17.48,45.14,-27.5,-0.602,1.053,0.211,0.308,0.2019,0.237,Panel_A,1,2.0,Fluorescent,85.0,Halt,47.91,133.4,Calm,Grip,Passive,0.0926,Composed,53.99,30,112,134,Inspection,3,0.8037,0.6332,12.51,33.8,Navigate_To_Point,Dynamic
1001,5,84.89,82.31,-36.7,-100.38,-0.626,1.715,0.035,0.4531,0.8629,0.762,None,8,0.0,Fluorescent,6.8,Mark,74.77,167.9,Calm,Indicate,Moderate,0.7624,Alert,27.05,5,182,198,Briefing,2,0.2541,0.2138,2.05,39.2,Standby_Mode,Branched
1001,6,18.26,-141.88,-52.67,7.56,-0.539,1.115,1.075,0.2303,0.0109,0.483,Terminal_D,16,1.0,Fluorescent,82.0,Mark,103.61,239.0,Frustrated,Grip,Passive,0.7579,Satisfied,89.35,0,182,190,Diagnosis,2,0.5136,0.5288,9.82,43.3,Standby_Mode,Dynamic
1001,6,47.63,-105.49,-39.99,-114.98,0.944,0.339,-0.039,0.2163,0.2521,0.454,Panel_A,9,3.0,Ambient,26.8,None,86.46,135.1,Frustrated,Indicate,Active,0.2954,Alert,14.59,7,142,154,Diagnosis,1,0.524,0.2808,21.32,48.0,Survey_Zone,Branched
1001,7,11.17,-41.38,-1.94,-102.25,0.306,0.622,0.82,0.5647,0.8089,0.415,Panel_B,11,2.0,Fluorescent,48.2,Assist,89.43,125.2,Calm,,Active,0.1847,Alert,81.06,4,130,128,Inspection,3,0.5558,0.415,6.68,34.0,Standby_Mode,Branched
1002,2,5.12,56.51,-41.92,49.24,0.606,0.534,0.651,0.0749,0.0221,0.289,Panel_B,15,1.0,Ambient,46.6,,49.98,203.9,Tense,Tap,Passive,0.0611,Alert,66.04,27,152,108,Diagnosis,3,0.7152,0.6345,26.12,55.0,Standby_Mode,Dynamic
1002,3,61.81,-10.17,53.36,30.56,0.505,1.527,0.921,0.7951,0.7795,0.298,Panel_B,14,4.0,Fluorescent,52.5,Proceed,84.85,177.5,Engaged,,Active,0.4307,Cautious,97.01,17,162,178,Repair,1,0.6678,0.5057,1.0,48.6,Standby_Mode,Sequential
1002,4,14.79,-1.84,-83.65,-162.05,-0.375,0.396,-0.319,0.5878,0.4558,0.492,Valve_C,8,1.0,Dim,45.6,Halt,82.36,243.2,Calm,Grip,Moderate,0.8864,Composed,58.78,8,168,168,Repair,4,0.4595,0.433,15.68,44.1,Navigate_To_Point,Dynamic
1002,4,22.35,-94.18,71.75,136.71,0.327,1.642,-0.22,0.4345,0.0428,0.57,Valve_C,12,4.0,Ambient,6.2,Assist,77.03,225.5,Calm,Tap,Moderate,0.0,Composed,17.05,10,176,124,Repair,4,0.4225,0.3562,1.0,37.9,Survey_Zone,Branched
1002,4,38.59,-14.28,-43.49,7.05,0.279,0.583,0.399,0.3358,0.6893,0.796,Panel_A,12,3.0,Ambient,43.0,None,61.22,158.4,Tense,Grip,Passive,0.3622,Satisfied,65.83,13,126,122,Briefing,5,0.2492,0.5384,3.29,45.4,Survey_Zone,Sequential
1002,5,28.49,-156.37,-71.72,169.18,-0.275,0.578,-0.444,0.3126,0.5201,0.938,Panel_A,3,4.0,Dim,45.2,Mark,35.0,178.8,Calm,Indicate,Moderate,0.7841,Satisfied,43.97,16,154,162,Inspection,5,,0.4673,2.97,39.8,Standby_Mode,Sequential
1002,6,30.08,87.0,4.48,48.47,-0.366,0.382,0.532,0.4628,0.8881,,Terminal_D,18,,Dim,66.6,Assist,50.57,163.8,Frustrated,Indicate,Active,0.8666,Alert,112.91,19,104,190,Briefing,1,0.4697,0.6161,57.58,44.7,Navigate_To_Point,Dynamic
1002,6,84.75,-122.28,62.49,61.75,-0.274,1.737,1.4,0.7421,0.8806,0.253,Terminal_D,16,1.0,Ambient,0.9,Proceed,83.98,166.8,Engaged,Indicate,Active,0.0838,Satisfied,57.62,5,188,130,Diagnosis,5,0.8316,0.374,1.82,36.9,Survey_Zone,Sequential
1002,7,43.65,119.2,-0.25,-129.84,0.247,1.772,0.763,0.6658,0.9163,0.789,Panel_A,6,2.0,Ambient,64.5,None,38.13,211.7,Tense,Indicate,Passive,0.9794,Satisfied,30.02,2,142,110,Diagnosis,4,0.2551,0.4296,3.52,40.9,Survey_Zone,Dynamic
1002,7,92.68,140.99,-77.72,105.09,0.659,1.591,0.341,0.8566,0.1636,0.521,Panel_A,10,3.0,Ambient,58.5,Halt,97.3,157.2,Engaged,Tap,Moderate,0.1516,Composed,64.32,13,154,152,Diagnosis,2,0.5186,0.4799,2.95,46.8,Navigate_To_Point,Sequential
1003,1,57.4,-164.65,5.94,-44.71,1.166,1.69,1.4,0.4563,0.7992,0.588,None,13,3.0,Fluorescent,81.4,Halt,45.11,200.1,Calm,Tap,Passive,0.6692,Cautious,104.9,18,188,174,Inspection,5,0.4186,0.7233,1.0,50.1,Survey_Zone,Sequential
1003,2,24.08,48.19,48.9,87.09,-0.817,0.484,0.653,0.2276,0.3633,0.539,Panel_A,13,5.0,Fluorescent,35.1,Mark,96.58,198.7,Tense,Grip,Passive,0.7734,Cautious,17.95,4,152,160,Repair,5,0.3755,0.4518,3.83,34.8,Standby_Mode,Branched
1003,2,24.47,160.28,86.74,-165.11,0.796,1.768,1.059,0.2991,0.7743,0.557,Panel_A,11,3.0,Ambient,63.4,Mark,48.19,209.8,Calm,Tap,Passive,0.6103,Composed,35.49,6,162,122,Repair,2,0.4412,0.4538,31.7,36.6,Survey_Zone,Branched
1003,3,15.48,-83.55,-43.2,130.47,0.294,1.141,0.054,0.776,0.9431,0.149,Panel_B,17,4.0,Fluorescent,4.6,Assist,65.36,136.9,Engaged,Tap,Active,0.0094,Satisfied,23.16,31,126,148,Repair,5,0.8562,0.6015,43.68,55.0,Standby_Mode,Branched
1003,4,21.0,139.65,-7.77,156.62,0.058,0.796,0.755,0.3966,0.4443,0.83,Terminal_D,7,2.0,Dim,88.9,Proceed,97.25,185.6,Engaged,Indicate,Passive,0.8805,Satisfied,107.64,13,182,190,Briefing,5,,0.6423,2.96,42.1,Navigate_To_Point,Branched
1003,4,83.08,-128.37,-42.42,141.09,-0.152,1.606,0.67,0.0793,0.5043,0.092,Valve_C,12,5.0,Fluorescent,87.4,Proceed,55.13,124.6,Engaged,Tap,Active,0.3295,Alert,3.04,4,138,118,Repair,5,0.9109,0.6235,13.09,36.4,Manipulate_Component,Dynamic
1003,4,98.77,61.55,9.0,-32.18,0.072,0.519,1.4,0.8312,0.7423,0.15,Terminal_D,9,1.0,Dim,78.2,Mark,94.84,166.6,Engaged,Indicate,Active,0.2195,Composed,62.78,26,144,190,Diagnosis,3,0.9218,0.6691,31.42,31.6,Manipulate_Component,Sequential
1003,5,26.65,-20.65,33.11,16.73,0.559,0.853,0.619,0.5383,0.3,0.17,None,15,5.0,Fluorescent,0.7,Proceed,52.23,140.2,Frustrated,None,Moderate,0.1704,Composed,18.25,5,144,112,Repair,2,0.7892,0.272,31.26,50.9,Navigate_To_Point,Sequential
1003,5,60.57,122.56,-37.06,13.9,0.63,1.698,1.4,0.9661,0.882,0.407,Terminal_D,10,1.0,Ambient,89.2,Proceed,74.21,165.1,Calm,None,Moderate,0.0398,Composed,75.24,26,150,150,Briefing,1,0.5537,0.659,8.21,39.9,Manipulate_Component,Branched
1003,6,6.06,30.13,-18.12,88.66,-0.594,0.95,1.4,0.0606,0.8388,0.968,None,15,4.0,Ambient,15.7,Assist,73.64,184.3,Engaged,,Active,0.2424,Alert,85.86,17,148,148,Inspection,4,0.0,0.4782,1.39,50.5,Standby_Mode,Dynamic
1003,6,91.12,-37.2,-25.26,-44.45,-0.049,0.749,-0.402,0.2102,0.8933,0.649,Valve_C,11,1.0,Fluorescent,77.4,Proceed,99.87,159.5,Tense,Grip,Moderate,0.6026,Cautious,53.86,3,136,146,Briefing,2,0.3953,0.4793,1.0,37.1,Standby_Mode,Branched
1003,6,98.46,28.52,-39.9,-152.65,1.151,1.623,-0.005,0.069,0.3495,0.977,Terminal_D,3,1.0,Fluorescent,32.6,Mark,63.84,183.4,Frustrated,Indicate,Passive,0.7346,Composed,39.45,8,142,120,Inspection,3,0.1029,0.3007,6.22,36.8,Navigate_To_Point,Sequential
1003,7,76.34,-62.13,52.4,-144.32,0.966,1.193,0.051,0.6335,0.3612,0.536,None,12,4.0,Dim,68.3,Assist,51.69,133.1,Engaged,Indicate,Passive,0.185,Cautious,94.34,13,150,162,Briefing,3,0.5344,0.567,24.03,35.1,Survey_Zone,Branched
1004,1,90.81,-29.99,22.02,-42.52,-1.0,0.947,0.523,0.4625,0.7304,0.329,Terminal_D,6,1.0,Dim,56.2,None,45.89,244.3,Frustrated,Indicate,Moderate,0.9589,Alert,63.09,2,196,136,Inspection,1,0.6364,0.3105,24.03,48.2,Manipulate_Component,Dynamic
1004,2,76.57,-10.66,-24.75,-110.52,-0.172,0.762,1.113,0.741,0.0846,0.462,Panel_B,2,5.0,Fluorescent,48.4,Proceed,39.76,245.6,Tense,None,Moderate,0.4186,Satisfied,102.9,25,192,132,Diagnosis,2,0.5474,0.4474,2.98,44.2,Standby_Mode,Sequential
1004,3,52.98,156.64,-88.44,-130.96,0.642,0.746,0.612,0.4431,0.9755,0.854,Panel_B,13,4.0,Dim,73.3,,82.8,144.3,Engaged,Indicate,Active,0.3304,Cautious,111.54,25,168,158,Repair,1,0.1504,0.6296,6.19,43.4,Manipulate_Component,Sequential
1004,3,71.1,116.2,-40.23,149.6,-0.133,1.031,0.405,0.5665,0.8526,0.423,Valve_C,17,3.0,Dim,57.2,Mark,50.5,141.5,Frustrated,None,Moderate,0.1613,Satisfied,67.86,15,180,126,Diagnosis,5,0.5222,0.6606,76.05,28.6,Survey_Zone,Sequential
1004,3,85.71,-180.0,-9.96,-140.54,-0.014,1.867,0.78,0.8196,0.4267,0.85,Panel_A,2,3.0,Ambient,73.3,,73.17,153.1,Frustrated,Grip,Moderate,0.492,Alert,16.3,25,150,154,Diagnosis,2,0.1529,0.5346,6.33,43.5,Survey_Zone,Sequential
1004,4,76.25,-87.81,-81.12,17.12,-0.026,0.538,1.4,0.1487,0.795,0.066,Panel_A,3,0.0,Ambient,36.0,Halt,56.01,130.7,Frustrated,Tap,Moderate,0.2121,Satisfied,17.91,20,112,168,Diagnosis,4,0.9684,0.4363,17.69,54.2,Navigate_To_Point,Branched
1004,5,42.77,54.25,-34.06,48.05,-0.498,1.562,-0.61,0.2302,0.6284,0.516,Panel_A,9,2.0,Ambient,42.9,Assist,61.67,151.3,Engaged,Indicate,Active,0.977,Cautious,54.74,12,136,178,Repair,1,0.4915,0.3762,13.92,41.7,Standby_Mode,Sequential
1004,5,43.87,15.61,-52.19,-1.03,0.872,0.903,0.064,0.5744,0.6791,0.617,Valve_C,14,1.0,Fluorescent,48.9,Halt,79.13,219.0,Engaged,Grip,Passive,0.607,Composed,74.18,26,148,162,Briefing,5,0.3718,0.6834,1.76,44.9,Standby_Mode,Dynamic
1004,5,80.8,132.02,-86.16,108.8,-0.273,0.617,0.122,0.9401,0.8472,0.832,Valve_C,18,4.0,Dim,12.9,Halt,79.34,118.7,Tense,Indicate,Passive,0.5844,Composed,85.55,3,104,112,Repair,3,0.1929,0.3631,8.64,50.3,Manipulate_Component,Sequential
1004,7,71.91,41.67,-17.61,101.55,-0.6,1.644,0.521,0.3335,0.7684,0.63,None,9,3.0,Dim,70.1,Proceed,58.42,229.3,Tense,Indicate,Moderate,0.7968,Cautious,26.59,17,142,110,Repair,1,0.4016,0.5104,1.31,44.8,Survey_Zone,Branched
1005,1,17.0,-43.55,-19.51,-56.81,-0.815,1.533,0.207,0.9826,0.6718,0.73,Panel_A,19,2.0,Fluorescent,96.5,None,66.69,214.0,Engaged,Tap,Passive,0.6696,Composed,40.53,22,172,124,Inspection,1,0.2638,0.7555,1.28,38.3,Standby_Mode,Branched
1005,1,32.9,96.07,-90.0,77.97,0.675,0.922,1.4,0.0274,0.653,0.343,Valve_C,1,2.0,Dim,32.7,Mark,79.08,198.3,Engaged,Tap,Passive,0.6936,Composed,41.82,5,140,152,Inspection,2,0.624,0.2249,16.94,35.3,Manipulate_Component,Dynamic
1005,2,21.52,-71.52,-69.86,27.44,0.857,1.048,0.197,0.2441,0.0085,0.236,None,8,4.0,Fluorescent,14.3,Mark,77.39,154.0,Calm,None,Passive,0.0403,Cautious,97.13,23,194,178,Diagnosis,3,0.791,0.4106,2.76,40.4,Navigate_To_Point,Dynamic
1005,3,25.52,-178.38,-86.6,118.08,0.701,1.435,0.722,0.4961,0.7302,0.954,Valve_C,14,2.0,Dim,59.0,None,71.8,149.8,Tense,None,Moderate,0.9735,Alert,47.09,5,146,148,Briefing,1,0.0,0.4347,17.06,53.1,Survey_Zone,Dynamic
1005,4,17.13,43.16,-8.16,0.91,0.773,1.36,0.227,0.1089,0.6764,0.997,Valve_C,1,4.0,Ambient,18.2,Assist,57.31,241.9,Engaged,Grip,Active,0.1244,Composed,91.1,3,158,182,Briefing,3,0.0373,0.1885,4.31,40.9,Navigate_To_Point,Branched
1005,4,25.45,-94.44,38.47,-4.65,-1.115,1.1,0.692,0.1414,0.9047,0.482,,19,2.0,Fluorescent,40.3,Halt,60.4,195.8,Calm,Tap,Active,0.4467,Composed,53.95,15,134,114,Inspection,1,0.4943,0.5041,46.24,48.3,Navigate_To_Point,Dynamic
1005,4,43.76,-44.16,79.33,150.23,-1.047,0.28,-0.046,0.6418,0.0286,0.519,None,15,1.0,Dim,86.7,Mark,95.2,146.2,Frustrated,Indicate,Moderate,0.1463,Cautious,88.28,25,188,106,Repair,4,0.5072,0.7892,61.76,40.7,Navigate_To_Point,Branched
1005,5,97.45,86.82,43.36,34.46,-0.45,1.318,-0.599,0.5887,0.9177,0.074,Valve_C,18,4.0,Ambient,58.8,Mark,75.15,202.6,Engaged,None,Active,0.5907,Composed,52.91,13,184,158,Briefing,4,0.9568,0.6319,12.52,31.0,Manipulate_Component,Branched
1005,6,10.18,1.55,-90.0,66.5,1.153,1.288,1.4,0.509,0.7333,0.515,Panel_A,9,,Ambient,83.9,Proceed,37.41,222.3,Frustrated,Indicate,Passive,0.5896,Composed,10.59,16,104,138,Repair,3,0.4868,0.6109,45.76,49.8,Navigate_To_Point,Branched
1005,7,46.21,-91.66,-9.25,-142.69,-1.011,0.928,1.276,0.6084,0.2257,0.652,Panel_A,19,2.0,Ambient,69.8,Proceed,39.61,144.3,Frustrated,Indicate,Active,0.8935,Composed,98.56,27,104,192,Inspection,5,0.2702,0.8211,12.71,41.4,Navigate_To_Point,Branched
1009,1,50.2,16.74,-49.38,-150.74,-0.142,0.593,-0.279,0.6716,0.5489,0.942,Terminal_D,2,2.0,Dim,85.9,Proceed,89.91,124.9,Frustrated,Grip,Active,0.1697,Cautious,73.49,15,142,196,Briefing,4,0.059,0.5606,4.6,49.4,Survey_Zone,Sequential
1009,2,1.05,16.24,-22.03,-77.12,-0.334,1.826,1.4,0.9577,0.6603,0.388,Panel_B,11,1.0,Fluorescent,20.2,Proceed,60.02,149.1,Engaged,None,Moderate,0.3622,Cautious,63.67,5,184,124,Inspection,3,0.5385,0.3248,1.0,56.3,Navigate_To_Point,Dynamic
1009,2,51.37,35.63,-48.33,161.94,-0.875,1.658,-0.407,0.6795,0.029,0.798,Valve_C,8,2.0,Fluorescent,35.9,Proceed,82.84,177.2,Frustrated,None,Moderate,0.0887,Alert,25.71,0,160,128,Repair,4,0.2229,0.3366,13.25,39.3,Survey_Zone,Dynamic
1009,3,25.25,128.78,-39.86,162.13,0.88,1.042,-0.096,0.8292,0.1267,0.858,Valve_C,18,1.0,Dim,25.6,Mark,92.84,188.8,Tense,Tap,Moderate,0.2951,Alert,105.41,2,144,170,Repair,4,0.0885,0.4298,9.53,32.8,Manipulate_Component,Branched
1009,3,85.65,176.45,73.04,-50.73,0.227,1.408,-0.354,0.0676,0.9619,0.812,Terminal_D,4,0.0,Dim,47.4,Assist,35.0,224.4,Tense,Indicate,Moderate,0.0689,Cautious,110.54,23,162,190,Inspection,1,0.2049,0.421,13.72,46.4,Manipulate_Component,Dynamic
1009,3,92.2,-127.35,27.49,138.08,0.987,1.326,0.435,0.5359,0.5019,0.835,Panel_A,12,4.0,Fluorescent,93.8,Mark,84.47,226.0,Calm,Indicate,Moderate,0.2931,Alert,102.97,17,152,172,Repair,4,0.2945,0.7175,5.37,45.6,Survey_Zone,Dynamic
1009,4,41.94,94.7,18.62,-25.08,0.659,0.588,0.341,0.4938,0.9753,0.519,Valve_C,9,3.0,Dim,82.7,Halt,99.52,240.1,Engaged,Indicate,Active,0.3844,Alert,37.4,23,188,186,Repair,4,0.4931,0.6914,7.65,42.4,Navigate_To_Point,Dynamic
1009,4,53.16,-28.15,2.58,-121.95,0.696,0.362,0.392,0.339,0.9441,0.252,Panel_B,4,1.0,Fluorescent,98.7,Proceed,61.11,119.5,Tense,Grip,Moderate,0.5361,Composed,36.99,16,170,106,Briefing,2,0.7313,0.5759,1.0,36.9,Standby_Mode,Branched
1009,4,60.06,-75.35,-90.0,-23.36,1.077,0.442,1.4,0.8523,0.5692,0.489,None,19,1.0,Dim,35.1,Proceed,61.48,179.7,Engaged,,Moderate,0.6488,Alert,102.47,7,188,114,Briefing,2,0.6226,0.4534,27.64,35.7,Navigate_To_Point,Sequential
1009,6,3.33,-92.22,-42.42,-123.38,0.021,1.225,1.061,0.9224,0.122,0.945,None,16,0.0,Fluorescent,22.4,Mark,50.59,120.4,Tense,Grip,Active,0.4493,Composed,35.05,22,126,198,Briefing,3,0.1273,0.5221,1.0,56.8,Standby_Mode,Sequential
1009,6,61.92,70.08,-69.53,124.02,0.306,1.317,-0.657,0.2541,0.3417,0.606,Valve_C,16,5.0,Ambient,44.3,None,81.67,140.3,Engaged,Grip,Passive,0.2228,Satisfied,25.54,28,148,112,Repair,1,0.388,0.5856,3.88,48.9,Manipulate_Component,Sequential
1009,7,20.31,-110.32,-86.29,42.99,-0.036,1.439,0.815,0.9102,0.244,0.907,Panel_A,1,3.0,Dim,94.3,Proceed,37.14,169.7,Tense,Tap,Active,0.3487,Composed,31.99,19,164,148,Inspection,2,0.1075,0.5499,42.68,47.7,Survey_Zone,Dynamic
1009,7,29.92,41.8,8.12,-131.72,0.85,0.744,-0.452,0.6518,0.7183,0.082,Valve_C,16,5.0,Ambient,85.5,Proceed,93.4,143.2,Frustrated,Indicate,Moderate,0.5627,Satisfied,80.1,29,144,138,Diagnosis,1,0.8602,0.7376,27.94,37.1,Survey_Zone,Dynamic
1009,7,82.99,16.59,-85.23,35.02,-0.888,1.745,0.981,0.8658,0.0843,0.368,None,19,5.0,Dim,77.2,None,84.78,140.3,Calm,Indicate,Passive,0.4969,Cautious,51.25,5,106,160,Briefing,2,0.6175,0.5852,25.14,36.8,Survey_Zone,Sequential
1010,1,91.79,-137.69,66.1,-153.71,-0.826,0.866,1.4,0.1168,0.8725,0.308,Valve_C,9,2.0,Fluorescent,95.9,Assist,94.73,184.2,Frustrated,None,Passive,0.5306,Composed,93.56,11,196,152,Inspection,2,0.6492,0.5839,33.08,44.7,Survey_Zone,Dynamic
1010,4,62.16,-86.6,-21.04,-166.06,1.106,1.195,-0.179,0.4975,0.8191,0.53,,18,1.0,Dim,33.4,None,84.06,177.0,Calm,None,Active,0.5195,Alert,38.82,25,174,106,Diagnosis,3,0.4628,0.6068,1.0,25.3,Manipulate_Component,Branched
1010,5,49.18,-158.8,-40.03,177.25,0.175,1.499,1.044,0.6102,0.1083,0.142,Panel_B,15,1.0,Fluorescent,16.8,Mark,90.11,230.8,Calm,Indicate,Active,0.0101,Composed,39.53,3,190,150,Briefing,5,0.831,0.4027,5.17,55.9,Manipulate_Component,Branched
1010,5,53.17,134.48,-82.01,-165.0,0.129,1.715,1.4,0.8592,0.7592,0.352,Terminal_D,6,2.0,Dim,59.2,,37.89,245.2,Calm,Indicate,Active,0.4025,Composed,11.71,12,110,130,Repair,1,0.6507,0.3991,11.69,50.8,Survey_Zone,Sequential
1010,5,55.25,45.55,2.18,-28.93,1.031,1.835,0.534,0.0,1.0,0.05,Panel_A,7,3.0,Ambient,20.2,Halt,103.69,215.4,Frustrated,Indicate,Moderate,0.2031,Alert,109.74,20,180,110,Repair,2,1.0,0.3665,1.24,30.9,Manipulate_Component,Sequential
1010,6,42.32,-145.51,-22.28,120.91,-0.177,1.331,-0.372,0.4839,0.5977,0.224,Valve_C,2,1.0,Dim,33.4,,44.64,233.3,Calm,Grip,Moderate,0.2779,Cautious,110.63,0,172,138,Diagnosis,3,0.7742,0.2296,13.29,46.0,Manipulate_Component,Dynamic
1010,6,82.06,-117.23,11.54,-27.03,-0.317,1.821,0.879,0.1924,0.0142,0.554,Panel_A,13,3.0,Fluorescent,82.7,Halt,50.93,134.2,Frustrated,Indicate,Passive,0.3359,Cautious,15.86,18,170,148,Diagnosis,4,0.4836,0.6978,24.7,45.7,Navigate_To_Point,Branched
1011,3,86.21,139.14,-79.94,-54.85,-0.591,1.132,0.266,0.4004,0.9658,0.183,Valve_C,11,4.0,Ambient,93.8,Mark,93.74,245.6,Calm,Indicate,Active,0.0303,Alert,54.05,7,148,144,Repair,5,0.7979,0.658,5.95,39.7,Navigate_To_Point,Dynamic
1011,4,23.48,-89.07,35.07,144.68,-0.047,1.211,0.998,0.2995,0.573,0.742,Valve_C,7,1.0,Fluorescent,68.5,Halt,104.35,228.7,Calm,None,Moderate,0.2499,Satisfied,80.46,19,110,116,Briefing,4,0.2569,0.5877,3.21,33.1,Manipulate_Component,Branched
1011,4,99.17,24.84,0.23,-177.75,0.776,1.475,-0.497,0.1622,0.4285,0.408,Valve_C,16,4.0,Ambient,65.3,Assist,74.45,134.7,Calm,Tap,Active,0.1504,Alert,77.29,12,190,116,Diagnosis,4,0.5232,0.6241,3.67,42.5,Manipulate_Component,Branched
1011,6,52.02,5.71,-4.47,-135.62,-0.695,1.1,1.118,0.7142,0.6993,0.894,Panel_A,11,1.0,Dim,81.1,Mark,57.81,158.4,Frustrated,Tap,Passive,0.4355,Composed,98.55,2,106,194,Repair,2,0.0876,0.4845,5.26,46.4,Navigate_To_Point,Sequential
1011,6,58.05,-127.41,-0.58,-17.34,-0.665,1.421,-0.624,0.2714,0.5412,0.795,Terminal_D,11,2.0,Dim,16.0,None,96.51,130.8,Frustrated,Tap,Passive,0.1433,Alert,112.25,10,182,172,Briefing,5,0.1937,0.4091,1.0,41.8,Standby_Mode,Sequential
1011,6,60.6,36.55,48.17,-165.02,-0.326,1.564,1.243,0.4713,0.1417,0.632,Valve_C,18,4.0,Ambient,2.8,Halt,49.55,122.4,Frustrated,,Passive,0.6113,Satisfied,57.38,15,114,198,Inspection,2,0.402,0.3915,1.0,42.5,Survey_Zone,Branched
1011,6,91.04,11.03,7.28,-173.68,0.804,0.454,0.908,0.7845,0.8776,0.747,None,13,1.0,Fluorescent,53.2,None,44.87,127.4,Calm,Grip,Moderate,0.9272,Satisfied,63.07,19,196,108,Inspection,5,0.2488,0.6324,10.27,40.7,Standby_Mode,Branched
1012,1,7.12,-88.86,51.03,-64.52,-0.766,1.235,0.425,0.2798,0.0605,0.207,Terminal_D,18,5.0,Fluorescent,19.6,None,84.81,160.9,Engaged,Indicate,Moderate,1.0,Composed,115.12,27,172,170,Repair,5,0.8573,0.6341,4.82,38.0,Survey_Zone,Branched
1012,1,21.17,95.16,11.35,79.46,-0.64,1.776,0.871,0.8225,0.0,0.856,Panel_B,14,3.0,Fluorescent,21.2,None,93.74,233.4,Tense,None,Moderate,0.98,Cautious,97.07,12,194,112,Diagnosis,5,0.1251,0.477,1.05,25.0,Navigate_To_Point,Branched
1012,3,48.95,78.22,-7.68,-79.95,-0.547,0.561,-0.242,0.0105,0.1419,0.479,Panel_B,17,1.0,Ambient,33.2,Halt,41.06,216.6,Calm,None,Passive,0.838,Composed,108.06,29,116,150,Diagnosis,1,,0.5659,8.1,33.8,Navigate_To_Point,Branched
1012,4,88.78,-155.9,-20.3,76.47,0.145,0.826,-0.166,0.3601,0.1694,0.143,Panel_B,8,2.0,Ambient,80.5,Proceed,35.0,215.3,Engaged,None,Moderate,0.5532,Satisfied,44.64,7,124,162,Diagnosis,5,0.8424,0.5773,15.13,50.3,Manipulate_Component,Dynamic
1012,4,89.79,-6.53,-1.98,-48.12,-0.386,0.826,1.223,0.1051,0.7529,0.15,Valve_C,3,2.0,Fluorescent,85.6,Halt,44.85,194.3,Calm,Tap,Passive,0.7404,Alert,67.0,18,158,108,Repair,5,0.8263,0.6243,13.82,37.2,Navigate_To_Point,Branched
1012,5,97.97,86.43,18.36,31.94,0.479,1.855,0.279,0.7109,0.7673,0.662,Panel_B,18,1.0,Dim,24.8,None,72.87,180.0,Frustrated,None,Moderate,0.2829,Cautious,44.57,23,172,128,Inspection,5,0.3899,0.621,4.88,55.8,Navigate_To_Point,Branched
1012,6,92.68,37.13,-54.93,88.31,-0.259,1.402,1.27,0.872,0.6317,0.475,Panel_A,2,1.0,Dim,16.0,None,96.46,252.8,Frustrated,,Active,0.9178,Satisfied,90.37,21,198,192,Inspection,5,0.5397,0.3928,1.0,40.1,Survey_Zone,Branched
1012,7,93.53,82.89,-20.81,-66.25,-0.748,1.3,-0.506,0.4462,0.4987,0.158,Terminal_D,4,1.0,Fluorescent,9.9,Proceed,69.21,169.9,Calm,Indicate,Passive,0.2526,Alert,100.76,13,140,134,Diagnosis,4,0.7918,0.3017,1.0,57.8,Manipulate_Component,Sequential
1012,7,96.97,116.61,-26.6,-93.97,-0.231,1.703,-0.71,0.6759,0.8115,0.203,Terminal_D,14,0.0,Fluorescent,99.3,Assist,80.92,145.2,Calm,Tap,Moderate,0.0281,Satisfied,76.85,3,116,136,Repair,1,0.7284,0.5601,21.4,26.1,Survey_Zone,Sequential
1013,2,27.33,157.89,68.85,-89.68,0.997,1.586,0.941,0.7684,0.9871,0.589,Valve_C,18,5.0,Dim,89.3,Mark,94.7,174.0,Tense,Tap,Passive,0.6914,Composed,100.65,20,140,102,Inspection,4,0.4348,0.7933,39.05,37.1,Standby_Mode,Sequential
1013,2,86.99,-74.04,-51.19,19.53,0.552,1.393,0.221,0.75,0.927,,Terminal_D,16,0.0,Fluorescent,85.5,Proceed,69.06,219.2,Engaged,None,Passive,0.5768,Alert,26.3,26,184,106,Repair,4,0.8646,0.8042,1.0,46.3,Manipulate_Component,Sequential
1013,3,72.19,-170.8,17.87,-16.86,-0.16,1.672,0.423,0.4718,0.8744,0.787,Terminal_D,8,1.0,Dim,87.8,Mark,66.2,212.0,Calm,Tap,Moderate,0.9198,Composed,13.92,19,176,142,Inspection,3,0.2611,0.6366,15.18,41.7,Navigate_To_Point,Branched
1013,3,74.48,-85.81,-28.89,-82.41,-0.421,1.178,0.181,0.5329,0.5028,,Terminal_D,7,3.0,Dim,65.8,Mark,50.6,217.2,Tense,Grip,Active,0.0824,Cautious,6.21,21,164,146,Inspection,2,0.2615,0.5339,20.18,33.0,Navigate_To_Point,Branched
1013,5,56.45,102.77,-37.65,-39.42,-0.691,1.658,0.214,0.8181,0.23,0.05,Terminal_D,12,5.0,Fluorescent,25.7,Assist,86.85,208.9,Frustrated,Indicate,Moderate,0.432,Cautious,3.9,12,134,108,Inspection,5,0.922,0.4701,22.51,42.2,Standby_Mode,Sequential
1013,5,71.15,-1.29,-61.88,148.28,-0.856,1.47,-0.48,0.5518,0.1822,0.885,Valve_C,10,2.0,Fluorescent,48.1,None,77.73,129.3,Engaged,Tap,Moderate,0.7449,Satisfied,40.68,9,190,176,Briefing,5,,0.5023,3.14,38.6,Survey_Zone,Branched
1013,6,28.44,-118.53,71.84,123.92,-0.52,0.608,-0.237,0.1055,0.0392,0.7,Panel_A,6,0.0,Ambient,34.4,Assist,53.74,195.5,Tense,Tap,Active,0.2072,Cautious,88.69,16,114,116,Repair,2,0.2534,0.3736,5.07,34.9,Manipulate_Component,Sequential
1013,7,53.48,104.94,-61.67,161.38,-0.247,1.152,1.4,0.5213,0.8352,0.653,Valve_C,6,3.0,Dim,9.8,Proceed,71.63,163.5,Frustrated,Tap,Active,0.4031,Composed,43.44,14,158,112,Repair,2,0.3285,0.2719,1.87,31.5,Standby_Mode,Sequential
1013,7,79.31,-174.7,-58.73,-165.01,0.342,1.149,1.4,0.4158,0.9487,0.498,Terminal_D,6,3.0,Fluorescent,21.2,Mark,82.57,189.3,Engaged,None,Moderate,0.4399,Cautious,18.6,6,116,112,Diagnosis,2,0.5476,0.2493,10.88,40.6,Survey_Zone,Dynamic
1014,2,26.68,-130.52,-66.77,158.93,0.233,0.543,0.447,0.5084,0.2176,0.735,,1,3.0,Dim,90.5,None,66.79,155.8,Engaged,None,Passive,0.0867,Cautious,110.08,8,130,196,Briefing,5,0.2292,0.5406,8.66,35.6,Manipulate_Component,Branched
1014,2,39.63,81.03,79.03,35.89,1.103,0.598,1.4,0.7051,0.0875,0.967,None,10,3.0,Fluorescent,71.9,Proceed,84.39,161.8,Tense,Grip,Moderate,0.7146,Composed,64.29,9,112,118,Diagnosis,3,0.0179,0.5256,1.15,30.1,Manipulate_Component,Branched
1014,4,21.37,-22.99,39.43,24.54,-0.584,0.933,0.724,0.2803,0.3777,0.346,Panel_B,8,1.0,Fluorescent,73.8,Halt,52.97,179.2,Calm,Grip,Moderate,0.4401,Cautious,66.23,14,130,168,Repair,3,0.6124,0.5486,1.0,45.3,Manipulate_Component,Sequential
1014,4,70.86,-159.71,81.95,-64.77,0.691,0.55,1.267,0.2579,0.1449,0.827,None,4,2.0,Dim,94.0,Proceed,83.44,164.8,Engaged,Indicate,Passive,0.4995,Alert,58.59,8,132,164,Repair,5,0.1388,0.587,7.68,34.6,Manipulate_Component,Dynamic
1014,4,90.72,-0.98,-42.92,-40.0,-0.936,1.453,1.239,0.9121,0.5605,0.912,None,12,5.0,Dim,1.1,Assist,70.87,166.2,Tense,Grip,Moderate,0.3552,Composed,49.14,19,166,132,Inspection,2,0.1461,0.3487,16.01,53.5,Standby_Mode,Branched
1014,5,12.01,-103.76,1.6,69.48,-0.264,1.681,0.759,0.1475,0.1558,0.615,Panel_B,9,2.0,Fluorescent,33.8,Assist,45.65,242.4,Tense,Indicate,Active,0.4191,Satisfied,35.24,16,160,180,Briefing,5,0.4297,0.4956,38.56,25.1,Standby_Mode,Dynamic
1014,5,91.38,-104.48,-12.44,-168.82,1.036,0.685,1.111,0.9402,0.7149,1.0,Valve_C,1,4.0,Dim,86.0,Mark,51.49,209.5,Tense,Grip,Moderate,0.3666,Alert,104.17,3,106,138,Repair,3,0.0093,0.4258,13.76,47.7,Navigate_To_Point,Sequential
1014,6,45.66,64.51,-90.0,25.34,1.114,1.544,-0.357,0.2317,0.1956,,Valve_C,12,2.0,Fluorescent,19.5,None,68.49,249.2,Engaged,Indicate,Passive,0.8139,Cautious,52.97,13,152,116,Diagnosis,5,0.0,0.4562,18.6,42.9,Standby_Mode,Dynamic
1014,6,55.14,-21.54,-65.47,-33.58,-0.086,1.509,1.038,0.7064,0.1916,0.409,Valve_C,15,5.0,Ambient,27.8,,38.55,192.3,Calm,Grip,Active,0.3214,Cautious,78.2,3,146,158,Briefing,4,0.5691,0.4112,3.51,45.9,Standby_Mode,Dynamic
1016,2,9.84,72.99,-69.65,-14.52,0.934,0.697,1.141,0.3591,0.7858,0.848,Terminal_D,4,1.0,Ambient,78.0,Assist,83.66,141.2,Calm,Grip,Moderate,0.1637,Satisfied,62.48,28,112,132,Repair,1,0.1445,0.5672,18.85,40.2,Standby_Mode,Dynamic
1016,2,34.92,-152.65,6.05,53.1,-0.029,1.304,-0.404,0.7283,0.5585,0.958,Valve_C,8,5.0,Dim,20.6,Assist,96.27,213.2,Frustrated,Indicate,Passive,0.6023,Alert,69.94,3,186,146,Briefing,2,0.0,0.2464,11.17,35.1,Standby_Mode,Branched
1016,2,50.08,-48.23,18.16,32.69,-0.115,0.647,0.669,0.5803,0.7693,0.771,Panel_A,7,2.0,Ambient,37.5,Proceed,104.67,220.9,Engaged,None,Passive,0.502,Alert,0.0,10,108,120,Briefing,4,0.2642,0.4089,2.88,30.8,Manipulate_Component,Sequential
1016,4,1.76,-131.53,26.2,-148.43,-0.738,1.353,-0.317,0.8271,0.293,0.86,Panel_A,8,1.0,Dim,59.1,Mark,70.09,120.8,Frustrated,Tap,Moderate,0.24,Satisfied,35.11,23,140,106,Inspection,1,0.1183,0.5074,3.55,47.8,Standby_Mode,Dynamic
1016,4,32.86,159.75,-16.65,174.59,-1.127,0.933,1.4,0.3914,0.3231,0.411,Terminal_D,14,,Fluorescent,40.7,Proceed,67.71,167.2,Calm,None,Moderate,0.8577,Cautious,114.25,8,172,162,Inspection,1,0.6318,0.394,4.99,36.5,Manipulate_Component,Sequential
1016,5,16.5,166.39,1.12,-66.14,1.196,1.338,1.251,0.9812,0.4608,0.127,Panel_B,8,4.0,Dim,20.5,Assist,88.47,170.8,Engaged,None,Moderate,0.083,Cautious,51.28,15,110,114,Repair,1,0.9048,0.3098,5.6,34.5,Survey_Zone,Dynamic
1016,5,37.07,52.78,84.46,166.91,-0.483,0.913,-0.136,0.8679,0.4528,0.818,Panel_A,3,1.0,Fluorescent,22.4,Proceed,46.69,222.7,Tense,Tap,Active,0.4234,Satisfied,74.94,20,150,162,Inspection,2,0.1715,0.3287,2.11,48.4,Navigate_To_Point,Sequential
1016,5,60.04,69.66,41.48,-31.7,-0.527,0.436,1.101,0.6946,0.8358,0.063,Panel_B,14,4.0,Fluorescent,22.8,None,42.79,154.4,Calm,Indicate,Moderate,0.8455,Alert,72.55,18,114,120,Inspection,3,0.9843,0.4695,7.03,36.4,Survey_Zone,Dynamic
1016,5,67.23,137.99,65.43,82.63,1.204,1.19,0.777,0.0723,0.6337,0.19,Panel_A,16,2.0,Fluorescent,42.4,Halt,61.3,118.4,Engaged,Tap,Passive,0.9412,Composed,90.29,2,184,116,Inspection,2,0.7602,0.4058,8.72,39.8,Survey_Zone,Dynamic
1016,6,64.29,-140.3,58.04,19.02,0.301,0.486,0.702,0.9922,0.8855,0.778,Terminal_D,15,4.0,Ambient,82.0,Assist,54.61,156.2,Engaged,Indicate,Passive,0.701,Satisfied,8.96,3,140,166,Diagnosis,5,0.2223,0.6309,27.82,47.3,Manipulate_Component,Sequential
1016,7,24.32,49.43,72.29,-116.93,-0.23,1.755,1.4,0.5047,0.8074,0.465,Terminal_D,6,3.0,Ambient,41.4,None,61.65,230.6,Tense,Indicate,Active,0.8818,Alert,88.34,10,152,150,Briefing,4,0.4935,0.4112,42.32,38.5,Survey_Zone,Dynamic
1016,7,35.78,51.0,56.64,-171.72,0.139,0.453,-0.637,0.0783,0.9953,,Panel_B,16,5.0,Dim,14.7,Assist,102.05,244.1,Frustrated,None,Passive,0.6019,Cautious,106.28,27,162,132,Diagnosis,1,0.8724,0.4742,13.37,25.0,Standby_Mode,Dynamic
1017,1,90.2,-141.89,-58.13,-118.38,-0.153,1.269,0.476,0.2005,0.0664,0.855,Panel_A,14,2.0,Fluorescent,100.0,Assist,42.59,123.0,Engaged,None,Passive,0.0498,Satisfied,27.93,9,104,130,Diagnosis,1,0.1591,0.6094,3.39,47.3,Manipulate_Component,Branched
1017,2,70.17,173.96,14.63,134.86,0.387,0.599,1.4,0.275,0.9344,0.203,Panel_B,2,5.0,Ambient,30.7,Proceed,60.15,156.9,Calm,Tap,Active,0.072,Alert,107.04,7,198,130,Repair,5,0.7935,0.3349,6.31,40.2,Manipulate_Component,Dynamic
1017,2,93.38,124.29,-0.42,-28.21,0.353,0.329,0.146,0.5964,0.4749,0.565,Panel_B,9,2.0,Dim,82.6,Mark,64.42,197.0,Frustrated,Indicate,Passive,0.9818,Composed,58.23,10,130,122,Inspection,2,0.5146,0.5295,1.21,44.4,Survey_Zone,Branched
1017,3,5.93,-47.93,-2.74,-37.94,0.701,1.403,0.511,0.906,0.8702,0.483,Panel_A,7,2.0,Dim,3.0,None,60.74,179.3,Tense,Indicate,Passive,0.8934,Cautious,39.63,8,178,196,Briefing,2,0.4684,0.2125,4.54,56.6,Survey_Zone,Dynamic
1017,3,8.52,76.73,-58.34,-87.84,-1.191,1.845,0.535,0.4162,0.3769,0.594,Terminal_D,14,1.0,Ambient,12.4,None,104.57,244.1,Frustrated,Indicate,Moderate,0.632,Cautious,92.7,4,150,106,Inspection,4,0.3736,0.3537,4.45,39.0,Survey_Zone,Sequential
1017,6,46.93,-88.63,-49.78,-118.21,0.407,0.778,1.1,0.5765,0.1568,0.416,Panel_A,15,2.0,Ambient,27.1,Assist,75.86,185.6,Calm,None,Passive,0.2219,Satisfied,57.24,26,180,164,Inspection,5,0.5265,0.6184,2.34,31.6,Manipulate_Component,Branched
1017,6,71.21,88.71,-57.17,-121.21,0.495,1.687,0.369,0.8555,0.2364,0.518,Terminal_D,3,5.0,Ambient,10.3,Assist,51.61,132.3,Frustrated,None,Moderate,0.3494,Satisfied,10.26,1,108,104,Repair,3,0.4206,0.168,5.34,34.2,Standby_Mode,Branched
1017,6,89.63,-133.74,-49.85,57.58,0.481,1.017,0.82,0.8832,0.0439,,Terminal_D,16,3.0,Ambient,61.2,Proceed,57.3,223.6,Frustrated,None,Passive,0.6132,Alert,94.46,29,120,120,Briefing,1,0.2201,0.6526,1.0,35.5,Standby_Mode,Sequential
1017,7,35.2,83.46,-64.85,163.34,0.366,1.346,0.782,0.7099,0.2049,0.858,None,3,4.0,Dim,74.4,Assist,93.86,153.1,Frustrated,Grip,Moderate,0.4974,Composed,73.84,17,172,198,Inspection,3,0.1598,0.5173,6.72,45.5,Manipulate_Component,Sequential
1017,7,79.32,77.62,-58.04,36.69,0.151,0.545,-0.393,0.7787,0.3593,0.793,Terminal_D,16,2.0,Fluorescent,88.9,Assist,48.43,137.2,Engaged,Tap,Passive,0.8748,Composed,83.88,7,184,130,Diagnosis,2,0.2585,0.6077,13.97,25.0,Survey_Zone,Dynamic
1019,2,9.09,-70.94,90.0,-133.87,1.208,1.731,0.255,0.0268,0.4206,0.052,Panel_B,7,2.0,Dim,88.2,Halt,64.33,141.8,Tense,Tap,Passive,0.1524,Cautious,55.61,26,184,190,Diagnosis,3,0.9867,0.6814,8.35,38.5,Navigate_To_Point,Branched
1019,3,75.26,15.9,-32.35,-16.08,0.163,1.135,0.481,0.6592,0.903,0.972,Panel_A,17,0.0,Dim,65.0,Proceed,71.69,248.9,Engaged,Indicate,Active,0.1493,Composed,9.33,25,174,154,Repair,1,0.0,0.646,26.93,39.6,Standby_Mode,Branched
1019,4,45.06,-111.85,-54.68,128.29,-0.822,1.376,0.487,0.2632,0.7111,0.636,Valve_C,9,3.0,Dim,52.2,,55.42,231.8,Tense,None,Passive,0.3945,Satisfied,105.19,30,196,176,Repair,3,0.2936,0.6093,17.88,42.2,Manipulate_Component,Sequential
1019,4,55.56,-79.63,-7.15,-89.32,-0.584,1.286,1.4,0.7105,0.7801,0.279,Terminal_D,14,5.0,Dim,59.6,Mark,95.27,185.8,Tense,Tap,Passive,0.1677,Satisfied,88.82,12,122,144,Repair,3,0.7271,0.5514,6.38,49.2,Survey_Zone,Dynamic
1019,5,54.52,-1.62,-9.78,51.0,-0.929,1.241,1.4,0.7578,0.3053,0.069,Terminal_D,9,3.0,Ambient,50.6,Assist,93.96,130.1,Engaged,None,Passive,0.4533,Satisfied,44.15,25,188,168,Inspection,4,0.9717,0.5947,11.68,54.1,Survey_Zone,Dynamic
1019,5,72.26,-68.97,-26.14,6.12,0.831,0.687,0.896,0.2638,0.4983,0.676,None,16,3.0,Fluorescent,39.2,Assist,37.53,227.0,Engaged,Grip,Moderate,0.9373,Satisfied,91.37,23,178,182,Repair,4,0.3321,0.6187,4.9,38.0,Manipulate_Component,Sequential
1019,5,81.15,106.06,-0.32,-174.79,-0.515,1.711,1.248,0.5676,0.8749,0.334,Panel_A,12,5.0,Ambient,90.5,Mark,74.79,142.8,Tense,Indicate,Active,0.6944,Satisfied,73.95,10,184,184,Briefing,4,0.6486,0.6512,80.0,36.5,Navigate_To_Point,Sequential
1019,7,51.96,-162.96,-18.18,-75.18,-0.501,1.16,0.417,0.7196,0.9558,0.74,Terminal_D,13,4.0,Ambient,90.2,Proceed,59.61,212.9,Tense,Tap,Moderate,0.5164,Satisfied,14.3,6,142,196,Repair,2,0.1821,0.5703,4.46,37.9,Standby_Mode,Sequential
1020,1,37.93,132.37,-56.26,130.21,0.81,1.022,-0.552,0.174,0.0527,0.828,Valve_C,12,5.0,Dim,28.1,Halt,44.24,246.7,Engaged,Tap,Active,0.4414,Cautious,58.8,28,112,102,Repair,4,0.1798,0.5735,14.25,52.7,Standby_Mode,Branched
1020,2,51.9,-54.9,81.97,-135.07,-0.754,1.713,-0.185,0.1702,0.9368,0.298,Panel_A,8,5.0,Fluorescent,2.7,None,92.59,222.8,Frustrated,Grip,Active,0.5728,Composed,32.61,23,160,126,Repair,5,0.698,0.43,12.98,38.0,Manipulate_Component,Branched
1020,4,18.88,162.57,-40.06,-137.99,-0.572,0.671,0.515,0.5607,0.6989,0.222,Panel_B,14,5.0,Ambient,5.6,Mark,92.26,240.1,Tense,,Moderate,0.9144,Composed,109.73,9,156,130,Repair,3,0.7665,0.339,2.92,45.1,Manipulate_Component,Dynamic
1020,4,71.14,91.36,-77.54,34.1,0.467,0.267,0.34,0.6499,0.6569,0.234,Valve_C,13,2.0,Dim,16.2,Mark,94.61,240.1,Tense,None,Active,0.9828,Composed,59.4,14,152,140,Diagnosis,3,0.7762,0.4038,19.04,49.1,Survey_Zone,Sequential
1020,5,11.37,-22.47,79.13,-147.19,0.542,2.0,0.067,0.3858,0.8639,0.525,Terminal_D,6,4.0,Ambient,55.5,Assist,103.28,240.5,Tense,Indicate,Passive,0.0576,Cautious,12.13,20,176,170,Diagnosis,5,0.5395,0.5687,6.94,32.4,Navigate_To_Point,Branched
1020,6,50.87,70.18,5.15,-172.41,-0.797,1.367,1.122,0.1858,0.7749,0.27,None,7,2.0,Dim,36.7,None,55.31,135.9,Tense,Indicate,Moderate,0.0978,Alert,110.56,21,186,156,Diagnosis,2,0.7627,0.4321,5.84,40.3,Survey_Zone,Branched
1021,1,24.14,-17.67,10.96,-137.09,0.557,0.517,1.313,0.6429,0.4996,0.169,Valve_C,3,4.0,Ambient,11.7,Proceed,53.27,154.7,Engaged,Indicate,Passive,0.4875,Composed,104.66,7,112,182,Briefing,5,,0.2797,6.68,45.6,Survey_Zone,Sequential
1021,1,36.72,-74.37,50.89,-119.14,-0.709,1.038,-0.065,0.7267,0.9058,0.664,,13,0.0,Ambient,31.1,Assist,100.6,207.3,Calm,Grip,Active,0.1937,Satisfied,42.93,5,122,140,Diagnosis,4,0.3103,0.4156,6.79,48.3,Standby_Mode,Sequential
1021,1,58.88,-29.55,-2.35,-14.1,-0.931,0.684,-0.524,0.5344,0.2565,0.582,None,3,5.0,Fluorescent,16.6,Mark,42.79,145.8,Calm,Indicate,Active,0.5036,Cautious,72.6,3,168,126,Repair,1,0.3869,0.1456,29.45,47.3,Manipulate_Component,Branched
1021,2,18.22,15.31,-47.85,-99.71,-0.119,1.489,1.4,0.608,0.5972,,None,5,1.0,Dim,65.3,Mark,57.03,121.5,Engaged,Indicate,Passive,0.3332,Alert,42.64,4,154,186,Briefing,1,0.0869,0.3466,1.0,38.1,Standby_Mode,Branched
1021,3,59.1,103.25,67.55,-8.78,-0.419,1.206,0.472,0.8225,0.9065,0.434,Panel_B,14,2.0,Ambient,3.0,Proceed,61.84,177.1,Calm,Grip,Active,0.2327,Cautious,19.74,9,166,192,Briefing,3,0.5438,0.3299,21.62,30.2,Navigate_To_Point,Branched
1021,4,16.38,-35.03,-90.0,63.57,-1.056,0.379,1.4,0.4387,0.8288,0.744,Terminal_D,2,0.0,Dim,43.9,None,91.37,149.7,Tense,Indicate,Active,0.0,Cautious,8.89,20,116,138,Diagnosis,2,0.2869,0.3926,7.75,53.0,Survey_Zone,Sequential
1021,4,53.47,-134.9,-31.04,-1.82,0.08,0.853,-0.496,0.1367,0.7939,0.865,Valve_C,2,5.0,Fluorescent,68.1,None,39.36,114.9,Calm,None,Moderate,0.3751,Composed,98.66,18,126,188,Diagnosis,2,0.0726,0.4617,30.98,28.2,Navigate_To_Point,Sequential
1021,4,80.12,5.93,0.05,-35.99,-0.613,0.52,0.932,0.4595,0.0972,0.95,Terminal_D,5,5.0,Dim,21.6,Proceed,44.66,213.8,Frustrated,Indicate,Active,0.2512,Cautious,56.43,30,132,156,Diagnosis,4,0.0886,0.4868,8.64,50.9,Navigate_To_Point,Dynamic
1021,4,85.87,165.85,19.88,48.26,0.326,0.63,0.45,0.0658,0.5497,,Terminal_D,8,5.0,Fluorescent,61.4,None,59.21,175.8,Calm,Tap,Moderate,0.891,Satisfied,33.44,17,148,166,Inspection,2,0.3902,0.4986,34.34,49.1,Standby_Mode,Dynamic
1021,6,19.78,100.32,25.89,16.61,-0.896,1.252,-0.07,0.592,0.3493,0.207,Terminal_D,15,2.0,Ambient,41.4,,54.19,202.0,Frustrated,Tap,Active,0.1516,Composed,95.63,8,130,192,Briefing,3,0.7925,0.4679,1.37,52.1,Standby_Mode,Dynamic
1021,6,22.36,-86.74,-41.61,141.27,0.849,0.877,0.391,0.6461,0.0385,0.115,Terminal_D,17,4.0,Fluorescent,71.3,Halt,88.45,238.0,Engaged,None,Active,0.1445,Composed,14.84,2,122,126,Repair,3,,0.5484,5.21,39.7,Survey_Zone,Sequential
1021,6,98.71,168.06,-34.19,-79.61,0.821,0.676,-0.31,0.1397,0.8776,0.627,Panel_B,15,4.0,Ambient,1.8,None,83.89,147.6,Engaged,Indicate,Active,0.3948,Cautious,10.8,18,192,182,Inspection,4,0.3496,0.4374,32.95,38.4,Standby_Mode,Branched
1021,7,13.96,2.94,50.45,28.08,-0.874,1.016,0.356,0.8699,0.5994,0.375,Valve_C,4,0.0,Ambient,2.7,Halt,74.07,194.9,Calm,Tap,Moderate,0.5198,Alert,70.59,19,118,138,Briefing,2,0.5944,0.2633,3.26,39.6,Navigate_To_Point,Branched
1021,7,18.08,73.28,-48.59,-66.33,-0.032,0.509,-0.661,0.2216,0.3693,0.574,None,8,1.0,Fluorescent,65.2,Mark,65.69,124.4,Engaged,Indicate,Active,0.8406,Composed,96.57,12,106,136,Diagnosis,1,0.4059,0.4429,12.67,47.3,Navigate_To_Point,Sequential
1021,7,20.91,-30.68,57.45,-107.19,-0.614,1.713,-0.63,0.8167,0.9017,,Terminal_D,15,1.0,Ambient,97.4,Halt,86.14,212.2,Tense,Indicate,Passive,0.6973,Satisfied,86.74,30,128,162,Briefing,4,0.5673,0.8657,3.27,49.1,Standby_Mode,Dynamic
1021,7,36.98,176.6,-35.11,-12.6,0.486,1.151,-0.748,0.3316,0.2666,0.05,Terminal_D,5,5.0,Ambient,83.4,Assist,41.43,155.8,Calm,Grip,Moderate,0.1561,Cautious,51.28,18,172,118,Repair,3,0.9928,0.5793,1.83,36.5,Survey_Zone,Sequential
1022,1,24.28,121.95,35.0,-172.0,0.195,0.505,-0.4,0.1307,0.7743,0.342,Valve_C,9,3.0,Dim,64.2,Proceed,80.75,202.4,Engaged,Tap,Active,0.6762,Cautious,84.23,10,146,178,Repair,2,0.66,0.4651,37.51,45.3,Standby_Mode,Dynamic
1022,2,13.42,180.0,60.16,-13.22,-0.254,0.625,1.4,0.1258,0.3784,0.247,None,10,5.0,Fluorescent,29.9,Halt,77.99,150.3,Calm,None,Active,0.6722,Composed,37.08,26,112,176,Repair,4,0.7496,0.5414,8.61,43.9,Navigate_To_Point,Sequential
1022,2,57.92,93.3,56.59,132.89,0.484,1.643,-0.466,0.3447,0.5569,0.382,None,12,5.0,Dim,73.6,,54.16,251.8,Engaged,None,Moderate,0.0679,Cautious,113.89,11,158,130,Repair,4,0.6455,0.5999,17.26,50.1,Navigate_To_Point,Branched
1022,3,73.52,176.18,45.32,146.37,0.981,1.792,-0.418,0.1317,0.7995,0.642,,16,2.0,Ambient,29.8,Assist,41.45,218.7,Calm,Indicate,Moderate,0.5888,Satisfied,56.96,16,152,194,Repair,1,0.346,0.4411,6.63,46.1,Survey_Zone,Dynamic
1022,3,83.67,-173.08,3.56,18.22,-0.499,0.748,0.617,0.0,0.3379,0.162,None,16,5.0,Dim,62.9,None,80.74,124.3,Engaged,Grip,Active,0.3873,Alert,21.89,9,126,154,Inspection,4,0.8184,0.5923,8.52,45.8,Navigate_To_Point,Dynamic
1022,5,16.61,123.11,-18.0,-45.97,-0.222,1.408,1.248,0.4229,0.4684,0.769,Valve_C,7,1.0,Fluorescent,46.5,Proceed,79.4,231.2,Tense,Tap,Active,0.2038,Composed,18.91,6,142,138,Inspection,3,0.2093,0.3792,14.95,37.1,Navigate_To_Point,Dynamic
1022,6,38.91,-5.42,-42.43,79.18,-0.106,1.4,0.79,0.5478,0.9731,0.095,Valve_C,19,3.0,Dim,33.9,None,59.26,189.1,Tense,Grip,Moderate,0.7156,Satisfied,50.4,7,180,192,Repair,2,0.9015,0.4492,7.2,34.1,Standby_Mode,Branched
1022,6,81.8,57.43,-2.08,-88.28,0.637,1.387,0.822,0.8838,0.6448,0.68,Panel_A,13,5.0,Ambient,74.3,Proceed,65.66,149.1,Engaged,None,Passive,0.1262,Composed,81.31,18,106,158,Briefing,2,0.3733,0.6084,2.14,32.2,Standby_Mode,Branched
1022,7,10.87,71.34,-58.25,-68.54,-0.382,0.56,0.881,0.7565,0.7696,0.627,None,13,2.0,Fluorescent,13.8,Halt,90.77,160.8,Calm,Grip,Active,0.8533,Composed,108.19,23,144,118,Repair,4,0.3762,0.4957,31.57,34.3,Manipulate_Component,Branched
1022,7,94.9,-20.65,76.38,148.27,0.741,0.526,-0.307,0.8329,0.0446,0.081,Valve_C,7,0.0,Fluorescent,72.9,Proceed,95.55,134.4,Frustrated,Tap,Moderate,0.7918,Cautious,76.22,18,156,170,Inspection,5,0.8955,0.6253,1.14,37.7,Standby_Mode,Sequential
1023,2,16.99,117.96,-5.27,-109.98,-0.387,1.009,-0.41,0.1248,0.2812,0.252,Panel_A,14,1.0,Dim,57.9,Proceed,70.94,237.1,Calm,Grip,Passive,0.6031,Satisfied,11.8,24,178,136,Briefing,2,0.6967,0.6092,1.0,40.4,Survey_Zone,Dynamic
1023,2,51.07,169.27,33.88,-80.27,-0.106,1.336,1.119,0.5206,0.9193,0.466,Valve_C,4,3.0,Fluorescent,95.7,Halt,39.22,121.6,Engaged,None,Moderate,0.048,Composed,85.19,3,172,132,Inspection,4,0.5327,0.5238,6.79,36.3,Standby_Mode,Dynamic
1023,2,91.0,1.07,8.08,-14.34,-0.733,1.522,0.237,0.0327,0.3785,0.809,Valve_C,10,4.0,Dim,81.3,None,71.34,174.4,Engaged,Indicate,Passive,0.4811,Satisfied,87.53,26,172,104,Repair,4,0.2414,0.7213,1.0,30.0,Standby_Mode,Sequential
1023,4,52.15,10.02,-13.34,14.58,-0.49,0.32,1.029,0.7862,0.2306,0.201,None,18,1.0,Fluorescent,80.5,None,58.22,241.0,Engaged,Grip,Moderate,0.2852,Satisfied,43.28,12,196,184,Repair,3,0.7519,0.67,11.46,52.4,Manipulate_Component,Dynamic
1023,5,6.95,-43.99,62.68,-165.29,-0.348,1.588,-0.639,0.7617,0.2948,0.625,Panel_B,3,4.0,Dim,83.0,Proceed,69.26,148.9,Engaged,Indicate,Active,0.6129,Cautious,80.56,13,178,142,Diagnosis,2,0.3932,0.4862,4.29,40.8,Survey_Zone,Dynamic
1023,6,19.06,-43.41,3.49,120.72,0.78,1.478,-0.308,0.6206,0.7834,0.863,Terminal_D,7,3.0,Dim,95.7,Halt,40.99,145.2,Frustrated,,Active,0.6736,Cautious,97.11,22,114,118,Briefing,2,0.1462,0.6464,1.83,45.8,Manipulate_Component,Branched
1023,6,44.45,107.13,9.73,-143.0,0.663,1.546,-0.138,0.2076,0.1628,0.2,Panel_A,5,3.0,Dim,80.4,Halt,77.61,201.0,Engaged,None,Active,0.9861,Cautious,10.3,10,178,110,Repair,2,0.6571,0.4763,36.51,40.0,Manipulate_Component,Sequential
1023,6,82.16,0.75,-2.7,34.24,0.572,0.86,0.889,0.3104,0.3756,0.654,Panel_A,12,1.0,Ambient,81.2,Mark,103.48,230.8,Calm,Tap,Moderate,0.3733,Composed,22.32,26,144,160,Inspection,2,0.3474,0.6837,2.9,42.0,Navigate_To_Point,Sequential
1025,1,6.13,-120.87,33.59,92.19,-0.145,0.282,1.4,0.9082,0.9498,0.935,Terminal_D,4,1.0,Fluorescent,25.8,None,69.39,170.1,Tense,Indicate,Active,0.7441,Alert,63.83,10,182,126,Diagnosis,2,0.0886,0.2739,8.06,41.3,Manipulate_Component,Dynamic
1025,1,25.37,-72.38,-84.62,-78.59,0.346,1.038,-0.563,0.9537,0.267,0.732,Terminal_D,9,4.0,Ambient,19.9,Assist,43.95,167.8,Engaged,Tap,Passive,0.6789,Cautious,29.57,19,128,192,Diagnosis,5,0.242,0.4704,5.3,45.6,Navigate_To_Point,Sequential
1025,2,20.91,-99.87,-65.15,-101.23,0.251,1.319,-0.629,0.6393,0.255,0.516,Panel_A,8,3.0,Dim,45.7,Assist,42.9,172.6,Tense,Indicate,Active,0.5868,Cautious,99.9,26,184,174,Briefing,1,0.4404,0.484,2.76,58.0,Survey_Zone,Dynamic
1025,2,75.07,95.4,4.93,146.95,-0.491,1.793,-0.395,0.6006,0.6826,0.824,Panel_B,17,3.0,Fluorescent,24.3,None,70.78,139.7,Frustrated,None,Active,0.1215,Alert,110.17,13,122,134,Briefing,2,0.2196,0.4398,5.71,47.3,Manipulate_Component,Dynamic
1025,3,13.55,135.53,1.8,-21.49,-0.114,0.39,-0.184,0.7485,0.1169,0.08,Terminal_D,6,1.0,Ambient,61.2,None,65.19,144.2,Engaged,Tap,Active,0.679,Composed,18.05,5,186,196,Repair,1,0.8326,0.3514,1.0,40.6,Manipulate_Component,Sequential
1025,3,39.33,-89.8,63.11,0.98,0.295,0.3,-0.17,0.9279,0.3062,0.185,Terminal_D,1,1.0,Dim,23.6,Proceed,98.85,239.7,Calm,Tap,Passive,0.7706,Composed,7.37,9,176,108,Briefing,2,0.8815,0.2243,2.92,42.8,Survey_Zone,Branched
1025,4,30.35,-122.94,-4.22,-151.69,0.747,0.248,-0.183,0.9937,0.6609,0.605,Terminal_D,13,0.0,Ambient,21.3,Proceed,74.64,134.2,Tense,Tap,Active,0.4622,Cautious,53.3,7,184,134,Inspection,1,0.3427,0.307,10.33,34.1,Navigate_To_Point,Sequential
1025,5,50.4,69.03,-77.96,93.81,1.108,0.48,1.4,0.5394,0.0983,0.733,Terminal_D,19,2.0,Dim,11.4,Mark,36.4,203.7,Engaged,None,Active,0.2572,Cautious,56.21,3,132,120,Inspection,3,0.2288,0.3692,6.51,37.7,Survey_Zone,Sequential
1025,6,36.18,180.0,-59.56,63.55,1.017,0.984,0.994,0.7652,0.1939,0.253,Panel_A,1,3.0,Fluorescent,83.3,Proceed,95.47,247.2,Engaged,Grip,Passive,0.1607,Alert,12.34,19,118,130,Diagnosis,3,0.7303,0.5414,14.03,38.7,Standby_Mode,Sequential
1027,1,21.8,-8.02,28.24,151.64,0.848,1.143,-0.251,0.5666,0.7192,0.252,Panel_B,16,3.0,Fluorescent,76.2,None,50.22,192.8,Engaged,None,Moderate,0.1104,Composed,68.52,23,154,148,Inspection,3,0.711,0.7182,18.73,38.6,Manipulate_Component,Dynamic
1027,1,28.79,-38.71,14.49,137.66,-0.43,0.67,1.121,0.1817,0.7211,0.956,Valve_C,4,2.0,Dim,29.0,None,62.08,217.8,Engaged,Tap,Moderate,0.8061,Composed,85.91,10,118,174,Diagnosis,2,0.1326,0.2851,14.73,27.2,Manipulate_Component,Sequential
1027,1,74.93,-125.47,28.09,-174.19,1.038,0.828,-0.28,0.8768,0.7146,,Terminal_D,13,4.0,Fluorescent,73.3,Proceed,76.21,163.8,Engaged,Indicate,Moderate,0.1904,Cautious,46.24,3,170,198,Repair,3,0.8995,0.5177,8.85,29.2,Navigate_To_Point,Sequential
1027,2,78.79,-87.43,66.94,8.6,0.941,1.25,0.168,0.6232,0.0151,0.472,Panel_B,13,3.0,Dim,43.3,Assist,65.98,150.2,Engaged,,Moderate,0.6729,Alert,88.19,4,182,162,Diagnosis,2,0.619,0.3905,1.0,51.2,Survey_Zone,Sequential
1027,2,95.6,-111.9,-74.57,37.5,0.693,1.046,0.88,0.7374,0.3723,0.617,Terminal_D,15,1.0,Fluorescent,34.0,None,78.49,242.7,Tense,Tap,Moderate,0.454,Satisfied,57.26,22,126,150,Briefing,5,0.3525,0.6113,21.75,43.5,Standby_Mode,Sequential
1027,4,20.69,-113.37,-82.7,-71.86,0.89,1.787,0.974,0.5583,0.2895,0.238,Panel_B,13,1.0,Dim,64.5,None,37.36,222.3,Tense,,Moderate,0.1981,Alert,70.66,13,160,104,Repair,1,0.7329,0.505,3.93,28.8,Manipulate_Component,Branched
1027,4,49.52,-123.25,-69.73,-168.93,0.53,1.033,0.056,0.7161,0.4135,0.463,Valve_C,15,2.0,Dim,76.3,None,104.36,196.1,Tense,Tap,Active,0.3524,Satisfied,110.45,3,192,198,Briefing,4,0.5888,0.5809,49.5,45.2,Survey_Zone,Branched
1027,4,49.6,47.24,35.26,66.82,1.091,0.834,1.4,0.7178,0.639,0.818,None,9,1.0,Dim,2.7,Mark,87.32,220.8,Engaged,Grip,Moderate,0.3094,Cautious,45.75,3,130,158,Diagnosis,3,0.2253,0.2252,24.58,38.6,Standby_Mode,Dynamic
1027,5,3.19,-106.23,-26.72,-115.44,-1.18,0.514,-0.532,0.3021,0.8978,0.368,Valve_C,10,5.0,Ambient,58.4,Mark,48.55,238.3,Engaged,,Active,0.9261,Cautious,59.95,19,114,134,Briefing,2,0.6389,0.5265,13.64,46.4,Standby_Mode,Branched
1027,6,12.69,91.46,-32.93,134.18,0.054,0.785,1.248,0.2788,0.95,0.582,Terminal_D,6,3.0,Dim,98.2,Halt,79.85,155.2,Calm,Grip,Active,0.3027,Alert,0.0,25,168,146,Repair,4,0.4555,0.7272,10.43,41.3,Standby_Mode,Sequential
1027,6,34.68,-68.55,33.57,-134.54,1.354,1.016,1.4,0.481,0.1368,0.74,Panel_B,15,2.0,Ambient,42.9,Mark,52.07,190.5,Calm,Tap,Active,0.5182,Satisfied,100.03,18,180,132,Diagnosis,1,0.2221,0.4912,12.94,32.0,Navigate_To_Point,Branched
1028,1,91.59,-79.21,-38.55,-167.64,0.043,0.391,0.767,0.1727,0.8781,0.08,Panel_B,8,4.0,Dim,30.7,Halt,50.0,189.0,Frustrated,Tap,Passive,0.7886,Alert,67.76,15,150,158,Briefing,1,0.9183,0.3455,9.69,31.3,Manipulate_Component,Sequential
1028,2,34.24,146.75,-49.38,-47.51,0.724,0.922,1.373,0.8445,0.921,0.191,Panel_B,4,4.0,Fluorescent,89.9,Mark,77.83,241.4,Frustrated,Tap,Moderate,0.8892,Alert,89.66,21,136,176,Repair,2,0.9008,0.5842,1.59,30.9,Standby_Mode,Sequential
1028,4,26.25,-151.94,44.93,121.74,0.753,1.08,0.268,0.4601,0.7076,0.235,,9,4.0,Dim,49.6,Assist,68.84,136.3,Frustrated,Grip,Passive,0.6799,Cautious,25.75,20,112,136,Briefing,2,0.7395,0.4921,4.83,39.9,Survey_Zone,Sequential
1028,4,33.11,-18.59,-69.61,112.23,0.625,0.52,1.307,0.01,0.1283,0.161,None,17,1.0,Dim,43.1,Mark,67.81,205.9,Calm,Grip,Moderate,0.2509,Satisfied,109.52,9,170,180,Inspection,1,0.8851,0.4443,64.68,25.8,Navigate_To_Point,Dynamic
1028,5,26.36,173.65,-66.14,66.91,0.026,1.575,-0.432,0.5705,0.8768,0.901,Panel_A,13,1.0,Fluorescent,11.8,Assist,98.4,163.2,Calm,Tap,Moderate,0.0542,Composed,75.81,10,120,156,Diagnosis,3,0.095,0.3572,3.83,25.0,Survey_Zone,Sequential
1028,6,2.26,-14.35,-11.91,33.16,0.195,1.135,0.046,0.272,0.2119,0.195,Terminal_D,1,,Fluorescent,56.7,Halt,49.16,197.8,Calm,Grip,Passive,0.337,Satisfied,80.51,22,136,182,Inspection,5,0.8919,0.5317,18.81,38.2,Manipulate_Component,Branched
1028,7,81.48,-63.44,80.91,7.48,-0.398,1.426,1.4,0.7541,0.7594,0.233,,2,5.0,Dim,15.3,Halt,43.42,169.9,Frustrated,Tap,Moderate,0.5711,Satisfied,26.6,17,116,132,Inspection,4,0.8871,0.3291,3.97,50.2,Manipulate_Component,Branched
1029,1,65.25,134.12,-65.32,-31.69,-0.324,1.618,0.423,0.7691,0.9516,0.327,Panel_A,7,3.0,Dim,40.0,None,37.31,150.8,Engaged,Indicate,Active,0.164,Cautious,68.16,3,124,176,Briefing,2,0.6986,0.303,4.11,45.4,Standby_Mode,Sequential
1029,1,66.72,-88.7,23.32,72.9,-1.211,0.219,0.732,0.191,0.6243,0.732,Terminal_D,10,3.0,Fluorescent,12.7,Proceed,68.86,239.6,Calm,None,Active,0.6696,Satisfied,27.11,25,126,180,Diagnosis,3,0.2827,0.4434,3.86,36.9,Survey_Zone,Sequential
1029,2,15.41,-9.54,5.23,-12.39,-0.448,0.825,0.686,0.9328,0.8196,0.482,Panel_A,15,2.0,Ambient,34.7,None,84.79,198.9,Calm,Indicate,Moderate,0.2898,Cautious,27.37,4,164,180,Briefing,4,0.6035,0.4432,1.0,32.0,Standby_Mode,Branched
1029,2,48.8,-71.72,67.12,68.14,-0.406,1.308,0.87,0.1926,0.9497,0.596,Panel_B,4,2.0,Ambient,0.0,Halt,99.11,155.6,Calm,Indicate,Active,0.8097,Cautious,39.73,10,102,184,Briefing,4,0.3406,0.2436,21.93,39.9,Standby_Mode,Branched
1029,2,61.78,-46.06,-14.3,84.41,-0.24,1.549,0.623,0.4591,0.8239,0.464,Valve_C,16,3.0,Ambient,91.8,Halt,47.79,218.6,Frustrated,Indicate,Passive,0.9178,Composed,110.32,28,104,150,Inspection,3,0.5376,0.8119,10.54,67.6,Navigate_To_Point,Dynamic
1029,2,65.68,-139.18,20.53,72.43,0.32,0.301,0.79,0.4685,0.4695,0.87,Panel_B,9,1.0,Dim,54.6,Mark,87.66,149.6,Frustrated,Indicate,Active,0.2599,Alert,69.89,5,114,160,Briefing,5,0.1334,0.4824,15.73,39.0,Survey_Zone,Branched
1029,2,80.26,133.86,-60.31,72.0,0.779,0.916,0.569,0.1715,0.6184,0.63,Panel_A,1,4.0,Ambient,30.9,Halt,96.82,113.5,Engaged,None,Passive,0.0513,Cautious,94.88,1,168,132,Repair,4,,0.2473,22.23,25.0,Survey_Zone,Sequential
1029,2,89.93,96.48,-53.09,-13.44,0.239,1.54,-0.492,0.8035,0.7089,0.61,Terminal_D,1,2.0,Dim,30.3,Halt,82.77,189.0,Frustrated,Indicate,Moderate,0.2629,Cautious,81.43,26,128,102,Repair,1,0.392,0.3505,1.0,57.4,Navigate_To_Point,Branched
1029,5,27.18,-116.52,25.62,72.8,1.122,1.708,0.7,0.4199,0.2769,0.413,Panel_B,18,1.0,Fluorescent,81.3,Mark,46.58,218.0,Tense,Indicate,Moderate,0.7918,Composed,78.7,19,184,148,Repair,5,0.5398,0.7875,18.54,56.3,Standby_Mode,Dynamic
1029,5,48.09,-130.5,-78.67,30.31,0.815,1.05,-0.077,0.2374,0.8305,0.438,Panel_B,17,1.0,Dim,51.0,None,96.74,148.5,Engaged,Indicate,Passive,0.6586,Alert,70.22,16,118,112,Diagnosis,4,0.5378,0.6167,23.33,35.3,Standby_Mode,Sequential
1029,5,96.66,-157.37,24.16,80.03,1.186,1.555,1.4,0.1242,0.1812,0.23,Terminal_D,18,4.0,Fluorescent,88.3,Mark,93.06,225.9,Frustrated,None,Active,0.3621,Cautious,15.1,19,164,134,Diagnosis,4,0.8288,0.782,18.75,56.6,Manipulate_Component,Branched
1029,6,64.36,135.96,-8.78,-8.47,0.973,0.926,0.405,0.0576,0.8072,0.574,Panel_B,16,3.0,Fluorescent,64.0,Proceed,82.51,214.1,Calm,Grip,Moderate,0.5382,Satisfied,55.79,21,138,118,Diagnosis,3,0.4284,0.6599,1.0,43.2,Manipulate_Component,Dynamic
1029,7,23.21,-10.78,64.88,180.0,-0.406,0.457,-0.444,0.0629,0.4368,0.161,None,14,5.0,Ambient,20.0,Assist,47.32,119.0,Frustrated,Indicate,Moderate,0.9399,Composed,44.68,24,152,130,Briefing,1,0.8105,0.4466,1.25,37.1,Navigate_To_Point,Branched
1029,7,36.67,10.32,-49.28,165.8,1.136,1.865,0.699,0.8891,0.297,0.748,Panel_A,18,1.0,Fluorescent,38.0,Mark,70.62,160.4,Tense,Tap,Moderate,0.8752,Cautious,78.46,30,178,134,Inspection,4,,0.6919,17.68,39.9,Navigate_To_Point,Dynamic
1030,1,93.79,-3.95,3.92,-22.69,-0.958,0.961,0.07,0.3661,0.5526,0.95,Panel_B,1,1.0,Fluorescent,8.4,None,97.45,153.0,Calm,None,Passive,0.2827,Composed,66.06,21,118,150,Diagnosis,5,0.0,0.3548,2.4,47.1,Survey_Zone,Branched
1030,2,89.16,148.38,-19.31,20.66,0.044,1.068,1.258,0.2404,0.2471,0.484,Panel_A,15,1.0,Ambient,73.0,Halt,101.82,175.1,Engaged,None,Active,0.0339,Composed,75.07,9,182,108,Inspection,3,,0.5863,1.0,53.1,Manipulate_Component,Sequential
1030,3,57.82,85.67,-41.31,154.93,-1.064,1.488,1.191,0.5597,0.971,0.879,None,10,2.0,Ambient,58.9,Assist,52.79,192.0,Engaged,Tap,Active,0.2257,Alert,38.65,14,148,108,Repair,2,0.0523,0.4892,1.24,45.6,Survey_Zone,Sequential
1030,4,87.19,141.05,81.96,-120.12,-0.104,0.555,1.019,1.0,0.6503,0.406,None,17,2.0,Dim,52.7,Mark,45.21,142.1,Engaged,None,Active,0.638,Composed,89.65,2,138,188,Briefing,3,0.5137,0.4833,18.63,28.5,Navigate_To_Point,Dynamic
1030,5,20.52,180.0,84.46,52.62,0.074,1.681,-0.497,0.0632,0.3389,0.804,Terminal_D,7,1.0,Fluorescent,60.9,Proceed,46.72,194.2,Calm,None,Moderate,0.9526,Alert,49.14,5,120,104,Repair,1,0.209,0.3618,11.47,45.2,Manipulate_Component,Branched
1030,5,20.64,-4.76,35.39,-11.18,-0.926,0.406,0.556,0.1309,0.3799,0.985,Panel_A,4,5.0,Fluorescent,70.5,Mark,65.18,221.4,Frustrated,,Active,0.4181,Alert,56.17,28,148,148,Repair,3,0.0249,0.601,9.38,33.8,Navigate_To_Point,Sequential
1030,5,58.07,42.69,-39.63,24.28,-1.033,0.386,1.335,0.9713,0.0766,0.676,Panel_A,9,0.0,Fluorescent,84.0,Mark,63.88,193.3,Calm,Tap,Moderate,0.1902,Alert,47.84,5,182,138,Repair,3,0.3191,0.5253,13.14,30.0,Navigate_To_Point,Branched
1030,5,84.76,12.18,-12.77,-114.89,-0.448,1.86,1.069,0.7762,0.9313,0.803,Panel_B,14,4.0,Ambient,17.8,Assist,54.62,197.6,Frustrated,Indicate,Active,0.1844,Satisfied,53.71,24,170,132,Inspection,1,0.2146,0.4389,13.62,39.9,Standby_Mode,Dynamic
1030,5,88.65,108.7,5.43,-100.95,0.337,1.154,0.199,0.6396,0.6322,0.31,None,3,3.0,Fluorescent,85.1,Assist,52.22,159.7,Frustrated,None,Active,0.434,Alert,91.16,21,174,108,Inspection,5,0.7382,0.646,22.34,37.0,Manipulate_Component,Dynamic
1030,7,41.91,108.41,-14.43,65.96,0.718,1.66,0.258,0.6021,0.2707,0.34,Panel_B,15,2.0,Fluorescent,94.6,Proceed,87.38,171.7,Tense,Tap,Active,0.4333,Cautious,19.99,24,158,124,Inspection,2,0.701,0.7491,1.22,45.1,Navigate_To_Point,Dynamic
1030,7,98.25,-71.52,66.46,46.38,0.942,1.575,-0.231,0.4628,0.1172,0.434,None,15,1.0,Ambient,59.2,Proceed,96.53,157.0,Frustrated,Indicate,Moderate,0.746,Composed,29.26,2,140,124,Inspection,1,0.568,0.4233,4.09,56.7,Standby_Mode,Sequential
1032,1,67.37,49.59,42.7,-120.29,-1.018,0.906,0.218,0.0852,0.675,0.359,Terminal_D,10,1.0,Dim,25.0,Proceed,41.16,244.5,Frustrated,None,Moderate,0.3534,Satisfied,25.21,14,168,158,Repair,3,0.6298,0.4005,18.0,34.7,Navigate_To_Point,Branched
1032,1,84.91,149.4,-75.4,160.67,-0.378,1.594,1.4,0.0936,0.2726,0.672,None,1,4.0,Fluorescent,83.5,Mark,77.97,217.7,Engaged,None,Moderate,0.9981,Composed,14.7,26,156,114,Repair,1,0.2994,0.5367,42.24,56.9,Standby_Mode,Sequential
1032,3,80.32,-112.68,-53.33,-97.32,0.723,0.538,0.792,0.6628,0.7728,0.356,None,11,5.0,Ambient,9.0,Halt,87.43,197.9,Tense,Tap,Moderate,0.6348,Cautious,100.36,24,146,108,Inspection,4,0.6361,0.464,7.21,43.1,Survey_Zone,Dynamic
1032,5,21.04,100.34,-26.45,-112.15,0.431,1.213,0.609,0.5683,0.0787,0.226,Panel_A,19,3.0,Fluorescent,92.9,Assist,46.43,247.7,Engaged,Indicate,Active,0.8703,Alert,31.28,2,148,102,Repair,1,0.7797,0.5867,5.1,41.0,Navigate_To_Point,Branched
1032,5,36.74,156.18,-76.32,71.37,-0.447,0.583,0.459,0.3533,0.2354,0.812,Valve_C,3,2.0,Fluorescent,42.8,Mark,59.71,217.6,Engaged,Grip,Passive,0.5424,Satisfied,66.49,12,120,166,Diagnosis,4,0.2047,0.3976,1.35,33.9,Standby_Mode,Branched
1032,6,9.07,-24.59,-64.94,157.29,-0.211,1.106,1.374,0.9612,0.5334,0.083,Panel_B,8,2.0,Ambient,56.6,Assist,61.92,137.0,Frustrated,Indicate,Passive,0.1741,Satisfied,62.4,20,102,112,Diagnosis,5,0.9402,0.5953,26.17,45.0,Survey_Zone,Sequential
1032,6,28.89,-11.69,-56.72,72.04,0.992,1.653,1.39,0.4577,0.0666,0.281,None,10,3.0,Dim,16.1,None,95.09,220.7,Calm,Grip,Moderate,0.9254,Alert,93.96,30,172,168,Briefing,1,0.6684,0.4344,1.0,32.2,Standby_Mode,Sequential
1032,6,45.42,71.27,-61.49,55.77,1.199,1.361,0.41,0.0803,0.9046,0.082,None,10,3.0,Dim,91.0,Halt,73.71,239.7,Engaged,Grip,Moderate,0.3745,Satisfied,64.03,13,172,104,Repair,4,0.8657,0.6537,8.37,45.4,Survey_Zone,Branched
1032,7,38.86,172.46,77.31,-155.51,0.838,1.221,-0.498,0.5676,0.4536,0.135,Panel_A,3,1.0,Fluorescent,78.2,,79.47,232.1,Calm,Indicate,Passive,0.4639,Cautious,85.19,5,184,182,Repair,1,0.8423,0.3769,3.62,36.0,Standby_Mode,Branched
1032,7,66.63,-149.14,-16.07,-140.63,-0.037,0.744,0.142,0.373,0.1028,1.0,None,6,3.0,Dim,24.0,Halt,87.12,127.0,Tense,Tap,Active,1.0,Alert,7.32,30,154,104,Inspection,1,0.0,0.4166,3.15,42.0,Manipulate_Component,Branched
1033,2,7.34,67.58,-89.28,134.03,0.879,0.35,0.216,0.8243,0.8409,0.309,Valve_C,10,4.0,Fluorescent,0.8,Mark,53.65,181.8,Tense,Tap,Passive,0.3572,Satisfied,40.47,23,178,122,Repair,3,0.7446,0.3861,20.01,59.9,Survey_Zone,Dynamic
1033,3,70.07,-47.81,28.41,-58.65,-0.146,1.444,0.37,0.9099,0.9548,0.733,None,12,5.0,Fluorescent,96.8,Assist,41.49,195.8,Engaged,None,Active,0.3885,Cautious,101.02,15,108,146,Diagnosis,4,0.3441,0.7124,10.51,41.1,Standby_Mode,Branched
1033,4,18.21,123.96,-48.96,-60.6,1.272,1.669,0.167,0.2966,0.1989,0.447,Terminal_D,1,0.0,Fluorescent,27.0,Assist,47.03,198.4,Frustrated,None,Moderate,0.944,Satisfied,56.87,16,140,174,Diagnosis,5,0.5913,0.3809,23.84,47.2,Manipulate_Component,Sequential
1033,4,38.49,175.14,56.56,-130.24,-1.139,1.048,0.2,0.2078,0.7655,0.95,Terminal_D,17,5.0,Dim,2.6,,101.37,128.2,Calm,Tap,Moderate,0.1131,Satisfied,105.1,3,170,162,Briefing,5,0.0598,0.3757,9.73,42.6,Survey_Zone,Dynamic
1033,4,66.35,180.0,-13.23,-47.92,0.118,0.385,0.383,0.1169,0.6215,0.95,None,11,5.0,Dim,53.2,Mark,58.54,237.8,Engaged,,Active,0.2967,Satisfied,64.58,1,166,104,Repair,1,0.009,0.349,19.73,44.4,Standby_Mode,Dynamic
1033,5,31.09,6.56,78.02,115.91,-0.119,0.98,-0.284,0.2329,0.6837,0.713,Panel_B,5,5.0,Ambient,31.6,None,41.22,179.3,Calm,Indicate,Moderate,0.5591,Composed,15.56,21,198,166,Repair,2,0.3908,0.3915,29.65,45.6,Standby_Mode,Dynamic
1033,5,75.92,110.41,24.42,144.92,0.016,1.789,0.489,0.3582,0.8433,0.856,Terminal_D,17,0.0,Ambient,27.4,Mark,103.91,164.5,Frustrated,Tap,Moderate,0.3354,Cautious,23.23,3,138,136,Repair,2,0.132,0.3725,1.0,46.5,Manipulate_Component,Sequential
1033,5,89.95,167.72,4.57,144.18,0.5,0.459,0.659,0.8855,0.2975,0.123,Valve_C,9,3.0,Ambient,29.0,Mark,96.03,235.1,Engaged,None,Moderate,0.6251,Alert,26.5,12,120,104,Briefing,1,0.8329,0.3275,13.58,41.7,Standby_Mode,Dynamic
1034,1,78.99,-38.21,82.05,179.14,0.648,0.56,-0.486,0.0344,0.2163,0.132,Terminal_D,15,3.0,Dim,39.7,Assist,68.27,219.5,Frustrated,None,Active,0.2414,Composed,22.3,0,126,190,Briefing,1,0.925,0.3394,6.69,41.4,Manipulate_Component,Sequential
1034,1,96.16,161.43,30.35,-61.22,0.494,1.439,0.655,0.6415,0.616,0.488,Panel_B,12,2.0,Dim,99.1,None,64.63,231.0,Tense,None,Moderate,0.8799,Alert,92.78,7,146,144,Inspection,4,,0.6579,2.35,47.6,Survey_Zone,Sequential
1034,2,87.63,31.59,25.82,-34.27,0.819,0.874,-0.273,0.899,0.9702,0.348,None,10,4.0,Dim,7.8,Proceed,51.03,141.9,Engaged,Tap,Moderate,0.3994,Satisfied,7.74,30,142,162,Diagnosis,2,0.6234,0.4353,1.0,31.0,Manipulate_Component,Dynamic
1034,3,5.75,92.47,-47.88,137.75,-0.797,0.519,-0.312,0.2798,0.5594,0.05,Terminal_D,5,3.0,Ambient,47.8,Mark,88.47,192.2,Tense,Grip,Passive,0.3619,Satisfied,8.97,0,178,190,Diagnosis,1,0.9716,0.2541,6.72,50.3,Navigate_To_Point,Sequential
1034,3,14.62,83.41,23.87,92.67,-1.064,0.759,-0.033,0.0384,0.2915,0.428,Terminal_D,4,3.0,Dim,88.8,Proceed,35.0,163.1,Tense,None,Moderate,0.7683,Cautious,93.5,6,124,182,Inspection,5,0.5943,0.5531,2.79,30.8,Manipulate_Component,Dynamic
1034,3,62.52,6.16,26.97,108.15,-0.456,0.614,-0.006,0.4807,0.6272,0.73,Panel_A,4,3.0,Ambient,53.1,None,60.02,191.8,Calm,Tap,Moderate,0.3958,Satisfied,78.55,11,152,114,Diagnosis,4,0.2132,0.4372,1.0,30.8,Navigate_To_Point,Sequential
1034,4,16.68,69.28,6.76,172.66,-0.026,1.834,1.4,0.6244,0.0569,0.906,None,16,1.0,Fluorescent,98.2,,36.85,198.4,Engaged,None,Passive,0.1961,Alert,105.07,10,178,192,Diagnosis,3,0.0306,0.6936,21.21,36.6,Survey_Zone,Sequential
1034,4,52.33,163.83,-42.77,-148.74,-0.091,0.266,0.697,0.6596,0.9009,0.663,Terminal_D,1,1.0,Dim,44.5,None,96.48,237.1,Engaged,Indicate,Passive,0.1548,Cautious,51.63,13,172,130,Repair,4,0.2096,0.3887,11.52,46.5,Navigate_To_Point,Branched
1034,4,73.76,-127.17,-56.34,131.99,-0.639,0.811,-0.533,0.268,0.874,0.391,None,18,3.0,Dim,62.8,None,63.28,186.4,Frustrated,,Passive,0.3624,Cautious,44.68,6,160,164,Repair,2,0.607,0.5312,3.53,47.1,Manipulate_Component,Dynamic
1034,5,20.0,14.3,-17.11,54.86,-1.189,1.42,0.284,0.4548,0.8792,0.068,None,15,1.0,Ambient,36.5,Mark,59.57,239.4,Engaged,None,Passive,0.8366,Cautious,25.64,20,132,152,Briefing,3,0.9046,0.5445,1.7,36.8,Manipulate_Component,Sequential
1034,5,52.27,89.52,-86.01,103.87,-0.847,1.247,0.535,0.9705,0.5996,0.412,Panel_A,13,4.0,Ambient,47.2,Assist,35.0,139.4,Tense,Grip,Passive,0.8556,Cautious,3.61,14,190,124,Inspection,3,0.6307,0.5123,1.64,52.1,Navigate_To_Point,Branched
